[
  {
    "id": "b1",
    "name": "阿房宫",
    "type": "皇宫",
    "dynasty": "秦",
    "period": "先秦两汉",
    "province": "陕西",
    "city": "西安",
    "lat": 34.271101,
    "lng": 108.822496,
    "isFeatured": true,
    "tagline": "六王毕，四海一，骊山北构而西折，直走咸阳。那座被杜牧以千古雄文祭奠的宫殿，以焚毁的灰烬换来了永恒的传说，探寻那段盛极而衰的帝国往事。",
    "imageUrl": "/images/buildings/b1.png"
  },
  {
    "id": "b2",
    "name": "未央宫",
    "type": "皇宫",
    "dynasty": "汉",
    "period": "先秦两汉",
    "province": "陕西",
    "city": "西安",
    "lat": 34.304562,
    "lng": 108.857417,
    "isFeatured": true,
    "tagline": "汉家天子，坐拥未央。这座矗立长安二百年的皇家宫城，见证了文景之治的盛世华章，也承载了汉武帝北击匈奴的雄图壮志，走进那个奠定中华文明底色的时代。",
    "imageUrl": "/images/buildings/b2.png"
  },
  {
    "id": "b3",
    "name": "汉代干栏式民居",
    "type": "民居",
    "dynasty": "汉",
    "period": "先秦两汉",
    "province": "广西",
    "city": "贵港",
    "lat": 23.114501,
    "lng": 109.594809,
    "isFeatured": true,
    "tagline": "悬于山水之间，架木为居，远离尘嚣。两千年前南方先民以竹木为骨、以智慧为魂，在潮湿的土地上建起了与自然和谐共生的家园，那是中国民居最初的诗意。",
    "imageUrl": "/images/buildings/b3.png"
  },
  {
    "id": "b4",
    "name": "南越王宫署遗址",
    "type": "官府",
    "dynasty": "汉",
    "period": "先秦两汉",
    "province": "广东",
    "city": "广州",
    "lat": 23.129433,
    "lng": 113.264592,
    "isFeatured": true,
    "tagline": "岭南深处，一座王城在地下沉睡了两千年。南越国的宫苑园林，将中原礼制与百越风情融为一体，那片精巧的曲流石渠，至今仍诉说着南国王朝的繁华旧梦。",
    "imageUrl": "/images/buildings/b4.png"
  },
  {
    "id": "b5",
    "name": "赵州桥",
    "type": "桥梁",
    "dynasty": "隋",
    "period": "魏晋隋唐",
    "province": "河北",
    "city": "赵县",
    "lat": 37.720247,
    "lng": 114.763275,
    "isFeatured": true,
    "tagline": "一拱跨千年，石桥卧长虹。隋代工匠李春以超越时代的智慧，将敞肩拱的秘密刻入石头，让这座桥在洨河上静静伫立了一千四百年，等待你来读懂它的语言。",
    "imageUrl": "/images/buildings/b5.jpg"
  },
  {
    "id": "b6",
    "name": "大明宫",
    "type": "皇宫",
    "dynasty": "唐",
    "period": "魏晋隋唐",
    "province": "陕西",
    "city": "西安",
    "lat": 34.342656,
    "lng": 108.935344,
    "isFeatured": true,
    "tagline": "长安城北，大明宫的轮廓曾是整个东方世界最宏伟的天际线。盛唐的诗人们仰望含元殿的重檐，写下了无数传世华章，那是中华文明最自信、最开放的时代。",
    "imageUrl": "/images/buildings/b6.jpg"
  },
  {
    "id": "b7",
    "name": "隋唐洛阳城官署",
    "type": "官府",
    "dynasty": "隋唐",
    "period": "魏晋隋唐",
    "province": "河南",
    "city": "洛阳",
    "lat": 34.682137,
    "lng": 112.466805,
    "isFeatured": true,
    "tagline": "武则天在此称帝，李白在此饮酒，洛阳城的官署街巷曾是天下权力与文化的交汇之地。那些消失在历史烟尘中的廊庑殿阁，依然在地下保存着盛世的记忆。",
    "imageUrl": "/images/buildings/b7.png"
  },
  {
    "id": "b8",
    "name": "交河故城民居",
    "type": "民居",
    "dynasty": "唐",
    "period": "魏晋隋唐",
    "province": "新疆",
    "city": "吐鲁番",
    "lat": 42.952301,
    "lng": 89.062488,
    "isFeatured": true,
    "tagline": "两条河流交汇处，一座城市从黄土中生长。交河故城的居民不用一砖一瓦，直接向下挖掘出房间、街道与庭院，那是人类建筑史上最独特的生存智慧之一。",
    "imageUrl": "/images/buildings/b8.png"
  },
  {
    "id": "b9",
    "name": "安平桥",
    "type": "桥梁",
    "dynasty": "宋",
    "period": "宋辽金元",
    "province": "福建",
    "city": "晋江",
    "lat": 24.784472,
    "lng": 118.547508,
    "isFeatured": true,
    "tagline": "海上有仙山，桥上有人家。宋代泉州人用五年时间，在浅海滩涂上铺就了这条长达两千余米的石桥，让天堑变通途，也让闽南的商贸文明走向了更远的海洋。",
    "imageUrl": "/images/buildings/b9.png"
  },
  {
    "id": "b10",
    "name": "卢沟桥",
    "type": "桥梁",
    "dynasty": "金",
    "period": "宋辽金元",
    "province": "北京",
    "city": "北京",
    "lat": 39.848959,
    "lng": 116.212675,
    "isFeatured": true,
    "tagline": "马可·波罗曾赞叹它是世界上最美丽的桥，桥上的石狮各具神态，无一雷同。卢沟桥不仅是金代石拱桥的巅峰之作，更是近代中国历史转折的见证者。",
    "imageUrl": "/images/buildings/b10.jpg"
  },
  {
    "id": "b11",
    "name": "开封府",
    "type": "官府",
    "dynasty": "宋",
    "period": "宋辽金元",
    "province": "河南",
    "city": "开封",
    "lat": 34.790491,
    "lng": 114.341037,
    "isFeatured": true,
    "tagline": "包青天升堂断案的地方，是北宋最高司法机构的所在。开封府的大堂之上，曾上演过无数关于公正与权力的故事，那是宋代士大夫精神最生动的建筑注脚。",
    "imageUrl": "/images/buildings/b11.jpg"
  },
  {
    "id": "b12",
    "name": "徽派民居",
    "type": "民居",
    "dynasty": "宋",
    "period": "宋辽金元",
    "province": "安徽",
    "city": "黄山",
    "lat": 30.005235,
    "lng": 117.985008,
    "isFeatured": true,
    "tagline": "粉墙黛瓦马头墙，小桥流水人家。徽商的财富与乡愁，化作了皖南山水间最动人的建筑诗篇。那些精雕细琢的木雕砖雕，是工匠们用一生时光刻下的家族荣耀。",
    "imageUrl": "/images/buildings/b12.jpeg"
  },
  {
    "id": "b13",
    "name": "故宫",
    "type": "皇宫",
    "dynasty": "明清",
    "period": "明清",
    "province": "北京",
    "city": "北京",
    "lat": 39.916348,
    "lng": 116.390803,
    "isFeatured": true,
    "tagline": "九千九百九十九间半，中轴线上的宫殿群以无与伦比的秩序感诠释着天下至尊。六百年风雨，二十四位皇帝，故宫不仅是一座建筑，更是中华文明的精神坐标。",
    "imageUrl": "/images/buildings/b13.jpg"
  },
  {
    "id": "b14",
    "name": "南京明故宫",
    "type": "皇宫",
    "dynasty": "明",
    "period": "明清",
    "province": "江苏",
    "city": "南京",
    "lat": 32.041589,
    "lng": 118.813177,
    "isFeatured": true,
    "tagline": "朱元璋在此建立大明，郑和从此出发下西洋。南京明故宫是北京故宫的蓝本与母体，那片沉寂的遗址之下，埋藏着大明王朝最初的雄心与梦想。",
    "imageUrl": "/images/buildings/b14.jpg"
  },
  {
    "id": "b15",
    "name": "乔家大院",
    "type": "民居",
    "dynasty": "清",
    "period": "明清",
    "province": "山西",
    "city": "晋中",
    "lat": 37.365732,
    "lng": 112.322749,
    "isFeatured": true,
    "tagline": "走西口的晋商，将财富与乡愁一同筑入了这座深宅大院。六个院落，三百余间房屋，乔家大院以砖雕木雕的精美，诉说着一个商业家族跨越两个世纪的传奇。",
    "imageUrl": "/images/buildings/b15.jpg"
  },
  {
    "id": "b16",
    "name": "西递/宏村",
    "type": "民居",
    "dynasty": "明清",
    "period": "明清",
    "province": "安徽",
    "city": "黄山",
    "lat": 29.905498,
    "lng": 117.991607,
    "isFeatured": true,
    "tagline": "牛形村落枕山而眠，月沼如镜映照着粉墙黛瓦。宏村的先人以风水之学规划水系，以徽州工匠的巧手雕琢门楣，将一个村庄变成了流传千年的东方画卷。",
    "imageUrl": "/images/buildings/b16.jpg"
  },
  {
    "id": "b17",
    "name": "直隶总督署",
    "type": "官府",
    "dynasty": "清",
    "period": "明清",
    "province": "河北",
    "city": "保定",
    "lat": 38.859084,
    "lng": 115.491157,
    "isFeatured": true,
    "tagline": "清代权力最重的封疆大吏，在这座朴素的衙门里处理着半个中国的军政事务。曾国藩、李鸿章都曾在此办公，那些厅堂与签押房，见证了晚清最后的挣扎与变革。",
    "imageUrl": "/images/buildings/b17.jpg"
  },
  {
    "id": "b18",
    "name": "广济桥",
    "type": "桥梁",
    "dynasty": "明",
    "period": "明清",
    "province": "广东",
    "city": "潮州",
    "lat": 23.659146,
    "lng": 116.618634,
    "isFeatured": true,
    "tagline": "十八梭船廿四洲，广济桥以浮桥连接石桥的奇特构造，成为中国桥梁史上的孤例。潮州人在韩江上建造的这座桥，既是交通要道，也是千年商贸文明的活化石。",
    "imageUrl": "/images/buildings/b18.jpg"
  },
  {
    "id": "scraped_0",
    "name": "砂井路总管府故城",
    "type": "官府",
    "dynasty": "元",
    "period": "宋辽金元",
    "province": "内蒙古",
    "city": "乌兰察布市",
    "lat": 41.533333,
    "lng": 111.706389,
    "batch": "第六批",
    "isFeatured": false,
    "description": "建造年代：始建于元代，现存遗迹反映元代地方军政建置时期的城址形制。；所在地区：位于内蒙古自治区乌兰察布市。；建筑特点：遗址以夯土城垣、城门遗迹及城内建筑基址为主要构成，整体具有北方草原地区军政城址常见的方整布局特征，城垣、防御设施与内部官署区之间关系较为明确，体现出元代边地城镇兼具行政管理、驻防控制与交通节点功能的空间组织方式。；历史文化价值：该城址是研究元代北方路府州县体系、草原地带军政城镇营建方式及多民族区域治理格局的重要遗存，对于认识元代边疆统治、驿传交通和北方夯土城防技术具有较具体的实物意义。",
    "features": [],
    "imageUrl": "",
    "relatedWorks": [],
    "relatedPersons": []
  },
  {
    "id": "scraped_1",
    "name": "辉发城址",
    "type": "官府",
    "dynasty": "明",
    "period": "明清",
    "province": "吉林",
    "city": "通化市",
    "lat": 42.684722,
    "lng": 126.046667,
    "batch": "第六批",
    "isFeatured": false,
    "description": "建造年代：始建于明代，为明代女真诸部活动时期的重要城址。；所在地区：位于吉林省通化市。；建筑特点：城址依山临水设置，城垣利用地势组织防御，内部空间兼具居住、议事与军事守卫功能，反映出东北山地族群城寨在自然地形基础上形成的复合型聚落格局，其防御性与部族中心功能较为突出。；历史文化价值：辉发城址与明代东北边疆民族格局、海西女真部族发展及后金兴起前的区域政治关系密切相关，是研究明代东北边地治理、女真社会组织及山城营造传统的重要物证。",
    "features": [],
    "imageUrl": "",
    "relatedWorks": [],
    "relatedPersons": []
  },
  {
    "id": "scraped_2",
    "name": "安答堡子城址",
    "type": "官府",
    "dynasty": "金至元",
    "period": "宋辽金元",
    "province": "内蒙古",
    "city": "包头市",
    "lat": 41.7,
    "lng": 110.435833,
    "batch": "第六批",
    "isFeatured": false,
    "description": "建造年代：始建于金代，元代继续沿用或整修。；所在地区：位于内蒙古自治区包头市。；建筑特点：城址以夯土城垣和城门、角部防御遗迹为主要特征，整体布局简明实用，适应北方高原地带防御与驻守需求，体现出金元时期边地城堡重视城垣防护、驻军管理和区域控制的建筑取向。；历史文化价值：该城址见证了金元时期阴山南北交通与边地管控体系，对研究北方民族政权的军事城堡设置、边疆防务演变和区域聚落网络具有直接参考价值。",
    "features": [],
    "imageUrl": "",
    "relatedWorks": [],
    "relatedPersons": []
  },
  {
    "id": "scraped_3",
    "name": "沈阳故宫",
    "type": "皇宫",
    "dynasty": "清",
    "period": "明清",
    "province": "辽宁",
    "city": "沈阳市",
    "lat": 41.7975,
    "lng": 123.455278,
    "batch": "第一批",
    "isFeatured": false,
    "description": "建造年代：始建于清天命、天聪年间，后经清代多次增建修缮。；所在地区：位于辽宁省沈阳市沈河区。；建筑特点：宫城由大政殿、十王亭、崇政殿、凤凰楼及后寝建筑群等组成，既沿用中原宫殿建筑的中轴与院落制度，又保留满族早期宫廷建筑空间组织特征，大政殿八角重檐攒尖顶及十王亭合围布局具有鲜明辨识度，展现出清初宫殿礼制由草创向完备过渡的形态。；历史文化价值：作为清朝入关前的皇宫，沈阳故宫保存了后金至清初国家建构、宫廷礼仪和满汉建筑文化融合的关键实物信息，对研究清代开国史、东北都城制度及宫殿建筑演变具有不可替代的价值。",
    "features": [],
    "imageUrl": "",
    "relatedWorks": [],
    "relatedPersons": []
  },
  {
    "id": "scraped_4",
    "name": "丁村民宅",
    "type": "民居",
    "dynasty": "明至清",
    "period": "明清",
    "province": "山西",
    "city": "临汾市",
    "lat": 35.834722,
    "lng": 111.426111,
    "batch": "第三批",
    "isFeatured": false,
    "description": "建造年代：始建于明代，延续至清代不断扩建修整。；所在地区：位于山西省临汾市襄汾县丁村一带。；建筑特点：建筑群以传统四合院和多进院组合为主，平面组织严整，院落层层递进，木构梁架、砖雕木雕及门楼做法保存较好，整体体现晋南民居重视礼序分区、生活功能复合与家族聚居的营造方式。；历史文化价值：丁村民宅集中反映了明清时期晋南乡村大族居住模式、地方建筑工艺与日常生活秩序，是研究黄土高原地区民居形制、家族制度和乡村社会结构的重要建筑实物。",
    "features": [],
    "imageUrl": "",
    "relatedWorks": [],
    "relatedPersons": []
  },
  {
    "id": "scraped_5",
    "name": "克里孟城址",
    "type": "官府",
    "dynasty": "汉至南北朝",
    "period": "先秦两汉",
    "province": "内蒙古",
    "city": "乌兰察布市",
    "lat": 41.436111,
    "lng": 113.191389,
    "batch": "第六批",
    "isFeatured": false,
    "description": "建造年代：始建于汉代，延续使用至南北朝时期。；所在地区：位于内蒙古自治区乌兰察布市。；建筑特点：遗址以夯土城垣、城门和城内建筑遗迹为主体，城防结构较为完整，呈现出北方边塞城址重视防御、屯驻与交通控制的布局特征，不同时期叠压关系反映其长期沿用与调整过程。；历史文化价值：该城址对于认识汉至南北朝时期阴山南北军事据点设置、边地政区演变和北方城址连续利用现象具有重要意义，也为研究草原与农耕交界地带的军事聚落提供了关键材料。",
    "features": [],
    "imageUrl": "",
    "relatedWorks": [],
    "relatedPersons": []
  },
  {
    "id": "scraped_6",
    "name": "九连城城址",
    "type": "官府",
    "dynasty": "金至元",
    "period": "宋辽金元",
    "province": "河北",
    "city": "张家口市",
    "lat": 41.581667,
    "lng": 114.985278,
    "batch": "第六批",
    "isFeatured": false,
    "description": "建造年代：始建于金代，元代继续使用。；所在地区：位于河北省张家口市。；建筑特点：城址以夯土城垣和较强防御设施见长，依地势构成连续设防单元，体现出北方山前通道地带城堡群的防御逻辑，兼具驻军、转运和区域控制功能。；历史文化价值：九连城城址是研究金元时期坝上至塞外交通线控制、军事城防体系及边地行政组织的重要遗址，对理解华北北缘军事地理格局有较强实证价值。",
    "features": [],
    "imageUrl": "",
    "relatedWorks": [],
    "relatedPersons": []
  },
  {
    "id": "scraped_7",
    "name": "黑城城址",
    "type": "官府",
    "dynasty": "汉",
    "period": "先秦两汉",
    "province": "内蒙古",
    "city": "赤峰市",
    "lat": 41.388056,
    "lng": 118.833056,
    "batch": "第六批",
    "isFeatured": false,
    "description": "建造年代：始建于汉代。；所在地区：位于内蒙古自治区赤峰市。；建筑特点：遗址以夯土城垣、壕沟和城内建筑基址为主要遗存，整体呈现汉代城址较为规整的平面格局，兼具防御与行政管理功能，反映出东北地区早期郡县城邑在城防和内部功能分区上的基本特征。；历史文化价值：该城址是研究汉代东北地区城邑建置、边疆治理和区域开发进程的重要遗存，对于认识汉王朝在北方边地的政区扩展和城镇化形态具有基础意义。",
    "features": [],
    "imageUrl": "",
    "relatedWorks": [],
    "relatedPersons": []
  },
  {
    "id": "scraped_8",
    "name": "土城子城址",
    "type": "官府",
    "dynasty": "南北朝",
    "period": "魏晋隋唐",
    "province": "河北",
    "city": "张家口市",
    "lat": 41.052222,
    "lng": 113.9825,
    "batch": "第六批",
    "isFeatured": false,
    "description": "建造年代：为南北朝时期城址。；所在地区：位于河北省张家口市。；建筑特点：遗址以夯土筑城为主，城垣轮廓较清晰，兼具山前设防和驻守管理功能，体现出南北朝时期北方边地城址规模适中、结构实用、注重防御的特征。；历史文化价值：土城子城址反映了南北朝时期华北北缘军事紧张背景下的地方筑城活动，对研究北朝边防体系、城防工程技术及区域聚落分布具有较高资料价值。",
    "features": [],
    "imageUrl": "",
    "relatedWorks": [],
    "relatedPersons": []
  },
  {
    "id": "scraped_9",
    "name": "崇礼住宅",
    "type": "民居",
    "dynasty": "清",
    "period": "明清",
    "province": "北京",
    "city": "北京市",
    "lat": 39.930278,
    "lng": 116.419722,
    "batch": "第三批",
    "isFeatured": false,
    "description": "建造年代：现存建筑为清代民居。；所在地区：位于北京市。；建筑特点：住宅以北京地区传统四合院格局为基础，院落组合清晰，正房、厢房和倒座房关系完整，注重中轴秩序与日常起居分区，木构架、砖墙和门窗细部具有北方城市住宅的典型做法。；历史文化价值：该住宅反映了清代京畿地区民居营造、家庭生活组织和城市居住形态，对于研究北京传统住宅制度、地方工艺及近世城市社会生活具有一定实物参考意义。",
    "features": [],
    "imageUrl": "",
    "relatedWorks": [],
    "relatedPersons": []
  },
  {
    "id": "scraped_10",
    "name": "元大都城墙遗址",
    "type": "官府",
    "dynasty": "元",
    "period": "宋辽金元",
    "province": "北京",
    "city": "北京市",
    "lat": 39.975,
    "lng": 116.377778,
    "batch": "第六批",
    "isFeatured": false,
    "description": "建造年代：始建于元代。；所在地区：位于北京市。；建筑特点：遗址保留元大都城垣基址及部分城防遗迹，城体规模宏大，整体规划强调都城方整格局、宫城皇城外郭城的秩序关系以及道路水系配合，体现出元代都城规划的整体性与草原帝国都城向中原礼制都城转化的特征。；历史文化价值：元大都城墙遗址是研究元代都城制度、城市规划史和北京城市发展脉络的核心遗存，对认识中国古代都城形态演进和多元文化交汇背景下的都城营建具有关键意义。",
    "features": [],
    "imageUrl": "",
    "relatedWorks": [],
    "relatedPersons": []
  },
  {
    "id": "scraped_11",
    "name": "北戴河秦行宫遗址",
    "type": "皇宫",
    "dynasty": "秦",
    "period": "先秦两汉",
    "province": "河北",
    "city": "秦皇岛市",
    "lat": 39.817778,
    "lng": 119.529167,
    "batch": "第四批",
    "isFeatured": false,
    "description": "建造年代：为秦代行宫遗址。；所在地区：位于河北省秦皇岛市北戴河区。；建筑特点：遗址以台基、夯土建筑基础及相关附属遗迹为主，反映出面向沿海巡幸活动设置的临时性或季节性宫苑设施特征，空间组织服务于帝王巡游、驻跸与礼仪活动。；历史文化价值：该遗址与秦始皇东巡和沿海区域纳入帝国秩序的历史背景密切相关，是研究秦代行宫制度、巡幸路线和早期帝国东部海滨经营的重要考古材料。",
    "features": [],
    "imageUrl": "",
    "relatedWorks": [],
    "relatedPersons": []
  },
  {
    "id": "scraped_12",
    "name": "黑山头城址",
    "type": "官府",
    "dynasty": "金、元",
    "period": "宋辽金元",
    "province": "内蒙古",
    "city": "呼伦贝尔盟",
    "lat": 50.211667,
    "lng": 119.494167,
    "batch": "第五批",
    "isFeatured": false,
    "description": "建造年代：始建于金代，元代延续使用。；所在地区：位于内蒙古自治区呼伦贝尔市。；建筑特点：城址依托北方边疆地理环境营建，以夯土城垣和防御设施为骨架，布局强调守御与交通控制，兼顾驻军和行政管理，是草原地带典型的军事行政复合型城址。；历史文化价值：该城址有助于研究金元时期东北北部边疆城镇体系、草原交通路线与区域统治方式，对理解北疆民族政权经营呼伦贝尔地区具有较高史料价值。",
    "features": [],
    "imageUrl": "",
    "relatedWorks": [],
    "relatedPersons": []
  },
  {
    "id": "scraped_13",
    "name": "巴彦乌拉城址",
    "type": "官府",
    "dynasty": "元",
    "period": "宋辽金元",
    "province": "内蒙古",
    "city": "呼伦贝尔市",
    "lat": 48.372222,
    "lng": 119.174722,
    "batch": "第六批",
    "isFeatured": false,
    "description": "建造年代：为元代城址。；所在地区：位于内蒙古自治区呼伦贝尔市。；建筑特点：遗址以夯土城垣、城门和内部遗存构成，平面关系较为明确，体现元代北方边地城镇兼具军政驻守、物资中转与地方管理的功能特点。；历史文化价值：巴彦乌拉城址是认识元代北疆地区城镇网络、草原行政治理与交通节点布局的重要遗址，对于研究元代边疆社会结构和城址分布格局具有实证意义。",
    "features": [],
    "imageUrl": "",
    "relatedWorks": [],
    "relatedPersons": []
  },
  {
    "id": "scraped_14",
    "name": "奥里米城址",
    "type": "官府",
    "dynasty": "金",
    "period": "宋辽金元",
    "province": "黑龙江",
    "city": "鹤岗市",
    "lat": 47.421944,
    "lng": 132.098333,
    "batch": "第五批",
    "isFeatured": false,
    "description": "建造年代：为金代城址。；所在地区：位于黑龙江省鹤岗市。；建筑特点：城址以夯土城垣和城内建筑遗迹为主，布局重视防御与管理功能，反映出金代东北地区城邑建设在寒地环境中的适应性，兼具军防与地方治所特征。；历史文化价值：该城址是研究金代黑龙江流域城镇建置、东北边疆开发以及女真政权地方控制体系的重要材料，对认识金代城址分布及边地治理方式具有价值。",
    "features": [],
    "imageUrl": "",
    "relatedWorks": [],
    "relatedPersons": []
  },
  {
    "id": "scraped_15",
    "name": "桃温万户府故城",
    "type": "官府",
    "dynasty": "元",
    "period": "宋辽金元",
    "province": "黑龙江",
    "city": "佳木斯市",
    "lat": 46.699167,
    "lng": 129.894722,
    "batch": "第六批",
    "isFeatured": false,
    "description": "建造年代：为元代万户府城址。；所在地区：位于黑龙江省佳木斯市。；建筑特点：遗址体现元代军事行政机构城址特征，城垣与内部官署区可能存在较明确分工，整体规模与布局服务于万户府的军政统辖、驻军调度和区域管理需求。；历史文化价值：该故城是研究元代东北地区军政合一建制、万户府体系及边疆统治方式的重要实物遗存，对理解元代黑龙江流域开发与治理具有较强意义。",
    "features": [],
    "imageUrl": "",
    "relatedWorks": [],
    "relatedPersons": []
  },
  {
    "id": "scraped_16",
    "name": "瓦里霍吞城址",
    "type": "官府",
    "dynasty": "辽至清",
    "period": "宋辽金元",
    "province": "黑龙江",
    "city": "佳木斯市",
    "lat": 47.169444,
    "lng": 130.855833,
    "batch": "第六批",
    "isFeatured": false,
    "description": "建造年代：始建于辽代，后历经金、元、明清时期沿用或重修。；所在地区：位于黑龙江省佳木斯市。；建筑特点：遗址具有长期使用叠压特征，城垣、居址与附属设施反映不同时期不断调整的城镇形态，整体兼具防御、驻守和地方管理功能，是多时代复合型城址。；历史文化价值：该城址连续跨越辽至清多个历史阶段，对研究东北地区长时段城址沿革、区域政权更替及地方聚落持续性具有十分重要的参考价值。",
    "features": [],
    "imageUrl": "",
    "relatedWorks": [],
    "relatedPersons": []
  },
  {
    "id": "scraped_17",
    "name": "雁窝岛城址",
    "type": "官府",
    "dynasty": "隋",
    "period": "魏晋隋唐",
    "province": "黑龙江",
    "city": "双鸭山市",
    "lat": 46.330833,
    "lng": 132.246667,
    "batch": "第六批",
    "isFeatured": false,
    "description": "建造年代：为隋代城址。；所在地区：位于黑龙江省双鸭山市。；建筑特点：城址依地势布局，以夯土城垣和城内遗存为主，规模适中，体现隋代东北地区边地城邑兼顾守御和治所功能的特点。；历史文化价值：雁窝岛城址为认识隋代东北边疆经营、地方建置与早期城镇分布提供了难得实物资料，对研究东北区域纳入王朝治理的过程具有意义。",
    "features": [],
    "imageUrl": "",
    "relatedWorks": [],
    "relatedPersons": []
  },
  {
    "id": "scraped_18",
    "name": "金上京会宁府遗址",
    "type": "官府",
    "dynasty": "金",
    "period": "宋辽金元",
    "province": "黑龙江",
    "city": "哈尔滨市",
    "lat": 45.510556,
    "lng": 126.981389,
    "batch": "第二批",
    "isFeatured": false,
    "description": "建造年代：始建于金代，为金朝前期都城遗址。；所在地区：位于黑龙江省哈尔滨市阿城区。；建筑特点：遗址包括宫城、皇城、外城及道路、水系、宫殿基址等，规划层次分明，强调都城中轴与礼制空间秩序，同时结合北方寒地条件组织城市功能，是金代都城规划与宫城制度的集中体现。；历史文化价值：作为金朝上京都城遗址，其保存了女真政权建立早期的国家形态、都城制度和宫殿营建信息，是研究金代政治史、都城史、民族融合与东北地区城市发展史的核心遗存。",
    "features": [],
    "imageUrl": "",
    "relatedWorks": [],
    "relatedPersons": []
  },
  {
    "id": "scraped_19",
    "name": "城四家子城址",
    "type": "官府",
    "dynasty": "辽至元",
    "period": "宋辽金元",
    "province": "吉林",
    "city": "白城市",
    "lat": 45.384444,
    "lng": 122.930556,
    "batch": "第六批",
    "isFeatured": false,
    "description": "建造年代：始建于辽代，延续至元代。；所在地区：位于吉林省白城市。；建筑特点：遗址具有多时期叠压特征，城垣轮廓和内部遗迹显示其兼具防御、驻军与地方治所功能，空间布局体现东北西部草原边缘城址注重交通节点控制和实用防御的特征。；历史文化价值：该城址对研究辽金元时期松嫩平原西部的政区设置、交通网络及民族政权在边地的治理模式具有重要意义。",
    "features": [],
    "imageUrl": "",
    "relatedWorks": [],
    "relatedPersons": []
  },
  {
    "id": "scraped_20",
    "name": "查干浩特城址",
    "type": "官府",
    "dynasty": "辽至明",
    "period": "宋辽金元",
    "province": "内蒙古",
    "city": "包头市",
    "lat": 44.430833,
    "lng": 119.915278,
    "batch": "第六批",
    "isFeatured": false,
    "description": "建造年代：始建于辽代，后历经金、元、明时期沿用。；所在地区：位于内蒙古自治区包头市。；建筑特点：遗址为多时代复合城址，以夯土城垣为主体，兼具边地军防、屯驻和地方管理功能，不同时期遗迹叠压反映区域政治与军事重心变化。；历史文化价值：查干浩特城址是研究内蒙古中西部地区辽至明时期城镇连续利用、边疆防御布局及农牧交错地带聚落演变的重要遗存。",
    "features": [],
    "imageUrl": "",
    "relatedWorks": [],
    "relatedPersons": []
  },
  {
    "id": "scraped_21",
    "name": "小四方山城址",
    "type": "官府",
    "dynasty": "战国至金",
    "period": "先秦两汉",
    "province": "黑龙江",
    "city": "牡丹江市",
    "lat": 44.874444,
    "lng": 130.691389,
    "batch": "第六批",
    "isFeatured": false,
    "description": "建造年代：始建于战国时期，后延续使用至金代。；所在地区：位于黑龙江省牡丹江市。；建筑特点：城址依山势构筑，利用地形强化防御，兼有山城与聚落双重特征，长期沿用使其呈现多时期叠压的空间形态，反映东北地区山城建筑传统。；历史文化价值：该城址对于研究东北山城从先秦到金代的延续与变化、区域防御体系以及民族文化交流具有重要价值。",
    "features": [],
    "imageUrl": "",
    "relatedWorks": [],
    "relatedPersons": []
  },
  {
    "id": "scraped_22",
    "name": "五排山城址",
    "type": "官府",
    "dynasty": "战国至汉",
    "period": "先秦两汉",
    "province": "黑龙江",
    "city": "牡丹江市",
    "lat": 43.943056,
    "lng": 130.823056,
    "batch": "第六批",
    "isFeatured": false,
    "description": "建造年代：始建于战国时期，延续至汉代。；所在地区：位于黑龙江省牡丹江市。；建筑特点：山城利用自然高地组织防御，城垣与险要地形结合紧密，内部空间以驻守、避险和管理功能为主，体现东北早期山城因地制宜的营建方式。；历史文化价值：五排山城址是研究东北地区早期山城体系、先秦两汉时期边地聚落和军事防御传统的重要遗址，对认识区域文化连续性具有意义。",
    "features": [],
    "imageUrl": "",
    "relatedWorks": [],
    "relatedPersons": []
  },
  {
    "id": "scraped_23",
    "name": "渤海国上京龙泉府遗址",
    "type": "官府",
    "dynasty": "渤海（公元698 －926年）",
    "period": "宋辽金元",
    "province": "黑龙江",
    "city": "牡丹江市",
    "lat": 44.129722,
    "lng": 129.152778,
    "batch": "第一批",
    "isFeatured": false,
    "description": "建造年代：建于渤海国时期，约公元8世纪至10世纪初。；所在地区：位于黑龙江省牡丹江市宁安市渤海镇一带。；建筑特点：遗址包括宫城、皇城、外郭城及宫殿、寺庙、道路、水系遗迹，城市规划整齐，坊市制度与宫城布局较为明确，既吸收唐代都城规划理念，又体现东北地方都城建设特点。；历史文化价值：作为渤海国都城遗址，上京龙泉府是研究东北亚都城史、渤海国政治制度、唐文化影响及区域民族交流的关键遗存，在中国古代边疆政权都城研究中地位突出。",
    "features": [],
    "imageUrl": "",
    "relatedWorks": [],
    "relatedPersons": []
  },
  {
    "id": "scraped_24",
    "name": "秦家屯城址",
    "type": "官府",
    "dynasty": "辽至金",
    "period": "宋辽金元",
    "province": "吉林",
    "city": "四平市",
    "lat": 43.795833,
    "lng": 124.601944,
    "batch": "第六批",
    "isFeatured": false,
    "description": "建造年代：始建于辽代，金代继续使用。；所在地区：位于吉林省四平市。；建筑特点：城址以夯土城垣和内部建筑遗迹为主要构成，平面较规整，兼具防御和行政管理作用，体现辽金时期松辽地区城址重视实用防护与地方统辖的特点。；历史文化价值：该城址对于认识辽金时期吉林西部区域建置、交通控制和边地社会组织具有较高价值，是研究东北平原城镇发展史的重要资料。",
    "features": [],
    "imageUrl": "",
    "relatedWorks": [],
    "relatedPersons": []
  },
  {
    "id": "scraped_25",
    "name": "乌拉泊古城",
    "type": "官府",
    "dynasty": "唐至元",
    "period": "魏晋隋唐",
    "province": "新疆",
    "city": "乌鲁木齐市",
    "lat": 43.639722,
    "lng": 87.584722,
    "batch": "第五批",
    "isFeatured": false,
    "description": "建造年代：始建于唐代，后延续至元代。；所在地区：位于新疆维吾尔自治区乌鲁木齐市。；建筑特点：城址位于交通通道节点，城垣、防御设施和内部遗存共同体现其在西域交通线上兼具驻军、驿传和行政管理的功能，布局强调边地城镇的守御与补给需求。；历史文化价值：乌拉泊古城见证了唐至元时期天山北麓交通与治理格局的变化，对研究丝绸之路北道城镇体系、西域军政建置和多民族交流具有重要意义。",
    "features": [],
    "imageUrl": "",
    "relatedWorks": [],
    "relatedPersons": []
  },
  {
    "id": "scraped_26",
    "name": "龙湖古城遗址",
    "type": "官府",
    "dynasty": "战国",
    "period": "先秦两汉",
    "province": "吉林",
    "city": "四平市",
    "lat": 43.1665,
    "lng": 124.7603,
    "batch": "第五批",
    "isFeatured": false,
    "description": "建造年代：为战国时期古城遗址。；所在地区：位于吉林省四平市。；建筑特点：城址规模较大，平面形态较规整，夯土筑城技术明显，体现战国时期东北南部地区早期城邑在防御、聚落组织和区域控制方面的基本特征。；历史文化价值：该遗址是研究战国时期东北地区政治势力分布、早期城市化和区域文化联系的重要实物依据，对认识燕文化东渐及地方城邑发展具有价值。",
    "features": [],
    "imageUrl": "",
    "relatedWorks": [],
    "relatedPersons": []
  },
  {
    "id": "scraped_27",
    "name": "偏脸城城址",
    "type": "官府",
    "dynasty": "辽至金",
    "period": "宋辽金元",
    "province": "吉林",
    "city": "四平市",
    "lat": 43.359722,
    "lng": 124.3725,
    "batch": "第六批",
    "isFeatured": false,
    "description": "建造年代：始建于辽代，金代继续沿用。；所在地区：位于吉林省四平市。；建筑特点：城址以夯土城垣和内部遗存为主，布局兼顾驻防与治所功能，反映辽金时期东北平原地带中小型城址的典型构成，具有较强地方防御色彩。；历史文化价值：偏脸城城址为研究辽金时期地方政区控制、军事设防与松辽平原聚落体系提供了重要资料。",
    "features": [],
    "imageUrl": "",
    "relatedWorks": [],
    "relatedPersons": []
  },
  {
    "id": "scraped_28",
    "name": "叶赫部城址",
    "type": "官府",
    "dynasty": "明",
    "period": "明清",
    "province": "吉林",
    "city": "四平市",
    "lat": 42.9321,
    "lng": 124.5173,
    "batch": "第六批",
    "isFeatured": false,
    "description": "建造年代：始建于明代。；所在地区：位于吉林省四平市。；建筑特点：城址依山川形势营建，兼具部族政治中心与军事防御功能，城寨布局与自然地形结合紧密，体现明代女真诸部聚落兼有议政、居住和守御的复合空间特征。；历史文化价值：叶赫部城址与明代东北民族关系、海西女真发展及后金统一东北的历史进程密切相关，是研究女真部族政治组织和明代边疆关系的重要遗存。",
    "features": [],
    "imageUrl": "",
    "relatedWorks": [],
    "relatedPersons": []
  },
  {
    "id": "scraped_30",
    "name": "城川城址",
    "type": "官府",
    "dynasty": "唐",
    "period": "魏晋隋唐",
    "province": "内蒙古",
    "city": "鄂尔多斯市",
    "lat": 37.701944,
    "lng": 108.309444,
    "batch": "第六批",
    "isFeatured": false,
    "description": "建造年代：为唐代城址。；所在地区：位于内蒙古自治区鄂尔多斯市。；建筑特点：城址以夯土城垣为核心，布局服务于边地驻军与行政控制，兼顾河套交通和区域守御需求，体现唐代北部边疆城镇实用而稳固的营建方式。；历史文化价值：该遗址是研究唐代北方边疆军镇设置、河套地区治理与交通网络的重要考古材料，对于认识唐王朝经营北部边地具有价值。",
    "features": [],
    "imageUrl": "",
    "relatedWorks": [],
    "relatedPersons": []
  },
  {
    "id": "scraped_31",
    "name": "中山古城遗址",
    "type": "官府",
    "dynasty": "战国",
    "period": "先秦两汉",
    "province": "河北",
    "city": "石家庄市",
    "lat": 38.342222,
    "lng": 114.220556,
    "batch": "第三批",
    "isFeatured": false,
    "description": "建造年代：为战国时期中山国都城遗址。；所在地区：位于河北省石家庄市平山县一带。；建筑特点：遗址由城垣、宫殿区、手工业区、墓葬区等组成，城市规划较成熟，防御与礼制空间并重，反映战国时期诸侯都城在政治中心、手工业生产和王权象征方面的综合功能。；历史文化价值：中山古城遗址为研究战国时期中山国政治制度、都城规划、族群文化交流及华北地区诸侯国发展提供了系统实物资料，学术意义十分突出。",
    "features": [],
    "imageUrl": "",
    "relatedWorks": [],
    "relatedPersons": []
  },
  {
    "id": "scraped_32",
    "name": "开元寺钟楼",
    "type": "官府",
    "dynasty": "唐至清",
    "period": "魏晋隋唐",
    "province": "河北",
    "city": "石家庄市",
    "lat": 38.14,
    "lng": 114.570833,
    "batch": "第三批",
    "isFeatured": false,
    "description": "建造年代：始建于唐代，现存建筑形制多经后世尤其明清时期修缮。；所在地区：位于河北省石家庄市。；建筑特点：钟楼为高台木构楼阁式建筑，重视垂直空间塑造与城市地标性，木构架与楼层空间围绕悬钟和报时功能设置，兼具寺院附属建筑与地方公共标志建筑的双重特征。；历史文化价值：作为寺院钟楼，其不仅体现佛教寺院建筑体系中法器建筑的设置规律，也见证地方寺院与城市公共生活、节令报时和民间信仰之间的联系，对研究钟楼类型演变与地方宗教建筑保存具有意义。",
    "features": [],
    "imageUrl": "",
    "relatedWorks": [],
    "relatedPersons": []
  },
  {
    "id": "scraped_33",
    "name": "南村城址",
    "type": "官府",
    "dynasty": "战国至晋",
    "period": "先秦两汉",
    "province": "山西",
    "city": "吕梁市",
    "lat": 37.725,
    "lng": 111.216111,
    "batch": "第六批",
    "isFeatured": false,
    "description": "建造年代：始建于战国时期，延续至晋代。；所在地区：位于山西省吕梁市。；建筑特点：城址具备较长延续使用特征，夯土城垣与内部遗迹反映其在不同阶段承担防御、治所与聚落中心功能，布局与山西中部地形环境相适应。；历史文化价值：该城址是研究晋西地区先秦至魏晋时期城邑发展、区域控制与聚落变迁的重要遗存，对认识黄土高原东缘城址演化具有参考价值。",
    "features": [],
    "imageUrl": "",
    "relatedWorks": [],
    "relatedPersons": []
  },
  {
    "id": "scraped_34",
    "name": "晋阳古城遗址",
    "type": "官府",
    "dynasty": "春秋至五代",
    "period": "先秦两汉",
    "province": "山西",
    "city": "太原市",
    "lat": 37.726389,
    "lng": 112.478333,
    "batch": "第五批",
    "isFeatured": false,
    "description": "建造年代：始建于春秋时期，延续使用至五代。；所在地区：位于山西省太原市。；建筑特点：遗址历经多次扩建与调整，包含城垣、宫殿区、道路及相关建筑基址，是长期使用的大型古城遗址，能够反映不同时代都城或州治在城防、礼制与城市功能方面的变化。；历史文化价值：晋阳古城在春秋、北朝和五代等多个历史时期具有重要政治地位，是研究北方都城史、山西区域政治格局及古代城市长期演变的重要核心遗址。",
    "features": [],
    "imageUrl": "",
    "relatedWorks": [],
    "relatedPersons": []
  },
  {
    "id": "scraped_36",
    "name": "玉华宫遗址",
    "type": "皇宫",
    "dynasty": "唐",
    "period": "魏晋隋唐",
    "province": "陕西",
    "city": "铜川市",
    "lat": 35.3275,
    "lng": 108.915,
    "batch": "第五批",
    "isFeatured": false,
    "description": "建造年代：始建于唐代。；所在地区：位于陕西省铜川市。；建筑特点：遗址依山地台塬布置宫殿与附属建筑，空间组织顺应地形，兼具避暑离宫与皇家礼仪活动功能，反映唐代宫苑建筑善于处理自然环境与宫殿群关系的特点。；历史文化价值：玉华宫与唐代皇家离宫制度、帝王巡幸及高等级宫苑营建密切相关，也是研究唐代宫殿建筑布局、山地宫苑经营和皇家生活方式的重要遗址。",
    "features": [],
    "imageUrl": "",
    "relatedWorks": [],
    "relatedPersons": []
  },
  {
    "id": "scraped_37",
    "name": "甘泉宫遗址",
    "type": "皇宫",
    "dynasty": "汉",
    "period": "先秦两汉",
    "province": "陕西",
    "city": "咸阳市",
    "lat": 34.96,
    "lng": 108.537778,
    "batch": "第四批",
    "isFeatured": false,
    "description": "建造年代：始建于汉代。；所在地区：位于陕西省咸阳市。；建筑特点：遗址作为汉代离宫遗存，以台基、建筑基础及相关遗迹为主要保存内容，体现西汉皇家宫苑依托山地台塬营建、重视礼仪与驻跸功能的空间组织方式。；历史文化价值：甘泉宫是汉代重要离宫之一，与西汉政治活动、祭祀巡幸和皇家生活密切相关，对研究汉代宫苑制度、帝国空间经营与都畿格局具有重要意义。",
    "features": [],
    "imageUrl": "",
    "relatedWorks": [],
    "relatedPersons": []
  },
  {
    "id": "scraped_38",
    "name": "大师姑城址",
    "type": "官府",
    "dynasty": "夏至商",
    "period": "先秦两汉",
    "province": "河南",
    "city": "郑州市",
    "lat": 34.843889,
    "lng": 113.491944,
    "batch": "第六批",
    "isFeatured": false,
    "description": "建造年代：始建于夏代，商代继续发展。；所在地区：位于河南省郑州市。；建筑特点：遗址为早期城址，具备城垣、壕沟和聚落遗存，反映出中原地区早期国家阶段在聚落防御、公共空间组织和城市萌芽方面的特征。；历史文化价值：大师姑城址对于探讨夏商之际中原早期城市形成、社会分层和政权组织具有重要价值，是研究中国早期文明进程的重要考古遗址。",
    "features": [],
    "imageUrl": "",
    "relatedWorks": [],
    "relatedPersons": []
  },
  {
    "id": "scraped_39",
    "name": "隋仁寿宫唐九成宫遗址",
    "type": "皇宫",
    "dynasty": "隋、唐",
    "period": "魏晋隋唐",
    "province": "陕西",
    "city": "宝鸡市",
    "lat": 34.6796,
    "lng": 107.7859,
    "batch": "第四批",
    "isFeatured": false,
    "description": "建造年代：始建于隋代仁寿宫，唐代改建为九成宫。；所在地区：位于陕西省宝鸡市麟游县。；建筑特点：遗址依山就势展开宫殿群布局，台基、宫门、道路及附属设施关系较为清晰，体现皇家离宫重视自然环境、礼仪空间和驻跸功能的建筑特征。；历史文化价值：该遗址见证了隋唐皇家离宫制度的延续与演变，也是唐代政治活动与宫苑文化的重要实物载体，对研究隋唐宫殿营建、离宫形制及碑刻文化传统具有重要价值。",
    "features": [],
    "imageUrl": "",
    "relatedWorks": [],
    "relatedPersons": []
  },
  {
    "id": "scraped_40",
    "name": "小双桥遗址",
    "type": "桥梁",
    "dynasty": "商",
    "period": "先秦两汉",
    "province": "河南",
    "city": "郑州市",
    "lat": 34.854444,
    "lng": 113.565556,
    "batch": "第六批",
    "isFeatured": false,
    "description": "建造年代：为商代遗址。；所在地区：位于河南省郑州市。；建筑特点：遗址包含道路、沟渠及与水工交通相关的遗存，反映商代都邑范围内桥渡或通道设施与城市组织之间的关系，体现早期工程建设与交通联系的实际需求。；历史文化价值：该遗址为研究商代都邑交通、水利与道路系统提供了重要证据，对认识早期城市公共工程和空间管理具有学术价值。",
    "features": [],
    "imageUrl": "",
    "relatedWorks": [],
    "relatedPersons": []
  },
  {
    "id": "scraped_41",
    "name": "永乐宫",
    "type": "皇宫",
    "dynasty": "元",
    "period": "宋辽金元",
    "province": "山西",
    "city": "运城市",
    "lat": 34.718056,
    "lng": 110.694167,
    "batch": "第一批",
    "isFeatured": false,
    "description": "建造年代：始建于元代。；所在地区：位于山西省运城市芮城县。；建筑特点：建筑群以中轴线组织宫门、龙虎殿、三清殿、纯阳殿、重阳殿等主要殿宇，木构架高大严整，单体建筑比例雄健，殿内壁画规模宏富，建筑、彩画与道教礼仪空间高度统一，是元代道教宫观建筑的代表。；历史文化价值：永乐宫集中保存了元代道教建筑形制、壁画艺术与宗教活动空间信息，对研究全真道传播、元代木构建筑技术和大型壁画绘制传统具有极高价值。",
    "features": [],
    "imageUrl": "",
    "relatedWorks": [],
    "relatedPersons": []
  },
  {
    "id": "scraped_42",
    "name": "城阳城址",
    "type": "官府",
    "dynasty": "东周",
    "period": "先秦两汉",
    "province": "河南",
    "city": "信阳市",
    "lat": 32.316111,
    "lng": 114.082778,
    "batch": "第五批",
    "isFeatured": false,
    "description": "建造年代：为东周时期古城遗址。；所在地区：位于河南省信阳市。；建筑特点：城址规模较大，城垣、壕沟和内部建筑区关系明确，体现东周时期南北交通地带城邑在防御、管理和区域联系中的综合功能。；历史文化价值：城阳城址是研究东周时期豫南地区政治格局、楚文化影响及区域城邑体系的重要遗址，对认识南北文化过渡地带的城市发展具有意义。",
    "features": [],
    "imageUrl": "",
    "relatedWorks": [],
    "relatedPersons": []
  },
  {
    "id": "scraped_43",
    "name": "太平天国天王府遗址",
    "type": "皇宫",
    "dynasty": "1853至1864年",
    "period": "",
    "province": "江苏",
    "city": "南京市",
    "lat": 32.0463,
    "lng": 118.7915,
    "batch": "第二批",
    "isFeatured": false,
    "description": "建造年代：为1853年至1864年太平天国定都天京时期遗址。；所在地区：位于江苏省南京市。；建筑特点：遗址反映近代政权在既有城市空间中改造皇权中心的建筑活动，宫殿区布局服务于政务、礼仪和居住功能，兼具传统王府格局与战时政权需求。；历史文化价值：该遗址是研究太平天国政权体制、天京城市改造和近代中国政治空间变迁的重要实物遗存，对理解晚清社会动荡背景下的都城空间重组具有意义。",
    "features": [],
    "imageUrl": "",
    "relatedWorks": [],
    "relatedPersons": []
  },
  {
    "id": "scraped_44",
    "name": "明故宫遗址",
    "type": "皇宫",
    "dynasty": "明",
    "period": "明清",
    "province": "江苏",
    "city": "南京市",
    "lat": 32.041944,
    "lng": 118.817778,
    "batch": "第六批",
    "isFeatured": false,
    "description": "建造年代：始建于明初。；所在地区：位于江苏省南京市。；建筑特点：遗址为明代宫城遗存，规模宏大，中轴严整，宫殿、门阙、御道及附属设施共同构成完整的宫城体系，反映明初都城宫殿对礼制秩序和皇权空间的高度强调。；历史文化价值：作为明代南京都城核心遗址，明故宫保存了明初国家制度、宫殿规划和都城建设的重要信息，对研究明代宫殿建筑、都城南北格局及南京城市史具有重要价值。",
    "features": [],
    "imageUrl": "",
    "relatedWorks": [],
    "relatedPersons": []
  },
  {
    "id": "scraped_45",
    "name": "楚皇城城址",
    "type": "皇宫",
    "dynasty": "东周至秦、汉",
    "period": "先秦两汉",
    "province": "湖北",
    "city": "襄阳市",
    "lat": 31.655556,
    "lng": 112.318611,
    "batch": "第五批",
    "isFeatured": false,
    "description": "建造年代：始建于东周时期，后延续至秦汉。；所在地区：位于湖北省襄阳市。；建筑特点：城址具有多时期叠压特征，城垣、宫殿区及附属遗迹表明其兼具都城或高等级城邑功能，布局反映楚系城邑重视防御、政治中心与生活空间结合的特点。；历史文化价值：该城址对研究楚文化政治中心、汉水流域城邑体系以及战国至秦汉时期区域政权更替具有重要价值。",
    "features": [],
    "imageUrl": "",
    "relatedWorks": [],
    "relatedPersons": []
  },
  {
    "id": "scraped_46",
    "name": "平阳府君阙",
    "type": "官府",
    "dynasty": "东汉",
    "period": "先秦两汉",
    "province": "四川",
    "city": "绵阳市",
    "lat": 31.4808,
    "lng": 104.7716,
    "batch": "第一批",
    "isFeatured": false,
    "description": "建造年代：为东汉时期建筑遗存。；所在地区：位于四川省绵阳市。；建筑特点：阙为石质高台式门阙遗存，构件雕刻和屋顶模拟木构做法较为典型，是汉代礼制建筑石刻化的重要表现，兼具纪念性和门庭标识功能。；历史文化价值：府君阙对研究汉代阙制、石刻艺术和地方官吏纪念制度具有重要意义，也是认识汉代礼制建筑形象的重要实物资料。",
    "features": [],
    "imageUrl": "",
    "relatedWorks": [],
    "relatedPersons": []
  },
  {
    "id": "scraped_47",
    "name": "朱德故居",
    "type": "民居",
    "dynasty": "1895－1907年",
    "period": "",
    "province": "四川",
    "city": "南充市",
    "lat": 31.4656,
    "lng": 106.6132,
    "batch": "第三批",
    "isFeatured": false,
    "description": "建造年代：为1895年至1907年使用的清末民居。；所在地区：位于四川省南充市仪陇县。；建筑特点：建筑以川东北传统民居院落为基础，木构穿斗架与院坝空间结合，功能布局适应川北乡村家庭生活与农业生产，具有地方居住建筑朴实实用的特征。；历史文化价值：故居保存了近代革命家早年成长环境及川北乡村社会生活面貌，对研究近代人物史和地方民居形态具有双重价值。",
    "features": [],
    "imageUrl": "",
    "relatedWorks": [],
    "relatedPersons": []
  },
  {
    "id": "scraped_48",
    "name": "太平天国忠王府",
    "type": "皇宫",
    "dynasty": "1860－1863年",
    "period": "",
    "province": "江苏",
    "city": "苏州市",
    "lat": 31.322778,
    "lng": 120.628611,
    "batch": "第一批",
    "isFeatured": false,
    "description": "建造年代：现存格局主要形成于1860年至1863年。；所在地区：位于江苏省苏州市。；建筑特点：府第由多进院落构成，轴线清晰，厅堂与居住空间层层展开，在原有江南大型宅第基础上服务于太平天国高级军事政治人物使用，兼具官署与府邸功能。；历史文化价值：忠王府是太平天国在江南地区的重要历史遗存，对研究太平天国政权组织、近代战时权力空间及江南大型府第改造利用具有重要意义。",
    "features": [],
    "imageUrl": "",
    "relatedWorks": [],
    "relatedPersons": []
  },
  {
    "id": "scraped_50",
    "name": "武昌起义军政府旧址",
    "type": "官府",
    "dynasty": "1911年",
    "period": "",
    "province": "湖北",
    "city": "武汉市",
    "lat": 30.5442,
    "lng": 114.3009,
    "batch": "第一批",
    "isFeatured": false,
    "description": "建造年代：现存建筑为1911年前后近代官署建筑。；所在地区：位于湖北省武汉市武昌区。；建筑特点：建筑采用近代公共建筑布局，空间适应办公、集会和行政管理需要，立面与结构反映晚清至民初中西合璧的公共建筑特点，是传统官署向近代政府建筑过渡的典型实例。；历史文化价值：作为辛亥革命武昌起义后军政府所在地，该建筑见证中国近代共和政治的开端，对研究辛亥革命史、近代政权空间和城市公共建筑转型具有重要意义。",
    "features": [],
    "imageUrl": "",
    "relatedWorks": [],
    "relatedPersons": []
  },
  {
    "id": "scraped_51",
    "name": "白灵淖尔城址",
    "type": "官府",
    "dynasty": "南北朝",
    "period": "魏晋隋唐",
    "province": "内蒙古",
    "city": "包头市",
    "lat": 41.286667,
    "lng": 110.234722,
    "batch": "第六批",
    "isFeatured": false,
    "description": "建造年代：为南北朝时期城址。；所在地区：位于内蒙古自治区包头市。；建筑特点：城址以夯土城垣和内部建筑遗迹为主，规模适中，布局重视边地防御与驻守管理，体现北朝时期阴山南麓军事城镇的功能取向。；历史文化价值：该城址为研究南北朝时期北方边疆政权设防、河套地区聚落布局及早期边地城防工程提供了重要材料。",
    "features": [],
    "imageUrl": "",
    "relatedWorks": [],
    "relatedPersons": []
  },
  {
    "id": "scraped_52",
    "name": "罗布泊南古城遗址",
    "type": "官府",
    "dynasty": "汉至晋",
    "period": "先秦两汉",
    "province": "新疆",
    "city": "巴音郭楞蒙古自治州",
    "lat": 39.5675,
    "lng": 90.507,
    "batch": "第五批",
    "isFeatured": false,
    "description": "建造年代：始建于汉代，延续至晋代。；所在地区：位于新疆维吾尔自治区巴音郭楞蒙古自治州。；建筑特点：遗址分布于罗布泊南缘荒漠地带，城垣、房址和附属遗存反映出丝路绿洲城镇在极端干旱环境中的紧凑布局和防御、驿传、屯守复合功能。；历史文化价值：该遗址是研究汉晋时期西域绿洲城镇、楼兰区域交通和干旱区人地关系的重要实物依据，对认识丝绸之路沿线城镇生存方式具有特殊意义。",
    "features": [],
    "imageUrl": "",
    "relatedWorks": [],
    "relatedPersons": []
  },
  {
    "id": "scraped_53",
    "name": "霍洛柴登城址",
    "type": "官府",
    "dynasty": "汉",
    "period": "先秦两汉",
    "province": "内蒙古",
    "city": "鄂尔多斯市",
    "lat": 39.860278,
    "lng": 108.512222,
    "batch": "第六批",
    "isFeatured": false,
    "description": "建造年代：为汉代城址。；所在地区：位于内蒙古自治区鄂尔多斯市。；建筑特点：城址以夯土城垣和内部建筑遗存构成，布局简洁，突出防御与驻守功能，反映汉代河套地区军事据点的基本面貌。；历史文化价值：该城址对于研究汉代北部边防体系、河套经营和地方屯戍制度具有较高史料价值。",
    "features": [],
    "imageUrl": "",
    "relatedWorks": [],
    "relatedPersons": []
  },
  {
    "id": "scraped_54",
    "name": "兴城城墙",
    "type": "官府",
    "dynasty": "明至清",
    "period": "明清",
    "province": "辽宁",
    "city": "葫芦岛市",
    "lat": 40.618611,
    "lng": 120.713889,
    "batch": "第三批",
    "isFeatured": false,
    "description": "建造年代：始建于明代，清代延续修缮使用。；所在地区：位于辽宁省葫芦岛市兴城市。；建筑特点：城墙平面方整，砖包城垣、马面、敌台、城门及瓮城保存较好，整体构成完整的明代卫城防御体系，兼具军事防御与城市管理功能，是辽西地区典型的明代城防建筑。；历史文化价值：兴城城墙见证了明代辽东防务格局和清代城市延续使用，对研究北方卫所制度、城防工程技术及边疆军事城镇史具有重要意义。",
    "features": [],
    "imageUrl": "",
    "relatedWorks": [],
    "relatedPersons": []
  },
  {
    "id": "scraped_55",
    "name": "十二连城城址",
    "type": "官府",
    "dynasty": "隋至唐",
    "period": "魏晋隋唐",
    "province": "内蒙古",
    "city": "鄂尔多斯市",
    "lat": 40.260278,
    "lng": 111.056667,
    "batch": "第六批",
    "isFeatured": false,
    "description": "建造年代：始建于隋代，延续至唐代。；所在地区：位于内蒙古自治区鄂尔多斯市。；建筑特点：遗址由多座相互联系的城址组成，体现河套地带连续设防和分段控制的军事布局，夯土城垣与区域交通结合紧密，具有边防堡寨群特征。；历史文化价值：该遗址群有助于研究隋唐时期北方边防体系、黄河流域军事控制和边地聚落网络的组织方式。",
    "features": [],
    "imageUrl": "",
    "relatedWorks": [],
    "relatedPersons": []
  },
  {
    "id": "scraped_60",
    "name": "雍和宫",
    "type": "皇宫",
    "dynasty": "清",
    "period": "明清",
    "province": "北京",
    "city": "北京市",
    "lat": 39.945556,
    "lng": 116.416667,
    "batch": "第一批",
    "isFeatured": false,
    "description": "建造年代：始建于清代，原为王府，后改为藏传佛教寺院。；所在地区：位于北京市东城区。；建筑特点：建筑群沿中轴线展开，牌楼、天王殿、雍和宫、永佑殿、法轮殿、万福阁等层层递进，宫殿式布局与寺院功能相结合，黄琉璃瓦屋面、彩画与大型佛教造像共同形成皇家寺院的庄严格局。；历史文化价值：雍和宫反映清代皇室与藏传佛教关系、京师宗教政策及皇家寺院营建水平，是研究清代民族宗教治理、宫殿式寺院建筑和北京宗教空间的重要实例。",
    "features": [],
    "imageUrl": "",
    "relatedWorks": [],
    "relatedPersons": []
  },
  {
    "id": "scraped_61",
    "name": "恭王府及花园",
    "type": "皇宫",
    "dynasty": "清",
    "period": "明清",
    "province": "北京",
    "city": "北京市",
    "lat": 39.935556,
    "lng": 116.386389,
    "batch": "第二批",
    "isFeatured": false,
    "description": "建造年代：始建于清代。；所在地区：位于北京市西城区。；建筑特点：府邸区与花园区完整结合，前部府第沿轴线布置厅堂院落，后部花园通过假山、水池、曲廊、轩亭组织游赏空间，兼具王府礼制秩序和私家园林审美。；历史文化价值：恭王府是清代高等级王府保存较完整的实例，反映京城王府制度、居住礼仪和园居生活方式，对研究清代贵族宅第建筑与园林文化具有重要价值。",
    "features": [],
    "imageUrl": "",
    "relatedWorks": [],
    "relatedPersons": []
  },
  {
    "id": "scraped_62",
    "name": "李大钊故居",
    "type": "民居",
    "dynasty": "1889年",
    "period": "",
    "province": "河北",
    "city": "唐山市",
    "lat": 39.386944,
    "lng": 119.085556,
    "batch": "第三批",
    "isFeatured": false,
    "description": "建造年代：为1889年前后形成并使用的民居。；所在地区：位于河北省唐山市乐亭县。；建筑特点：故居为冀东地区传统院落住宅，布局简洁实用，房屋围合院落，适应北方乡村家庭生活，木作与砖砌做法体现地方民居营造特征。；历史文化价值：该故居保存了李大钊成长环境与晚清冀东乡村社会生活的空间背景，对研究近代人物史及地方民居类型均有意义。",
    "features": [],
    "imageUrl": "",
    "relatedWorks": [],
    "relatedPersons": []
  },
  {
    "id": "scraped_63",
    "name": "圆沙古城",
    "type": "官府",
    "dynasty": "汉",
    "period": "先秦两汉",
    "province": "新疆",
    "city": "和田地区",
    "lat": 38.741667,
    "lng": 82.138056,
    "batch": "第五批",
    "isFeatured": false,
    "description": "建造年代：为汉代城址。；所在地区：位于新疆维吾尔自治区和田地区。；建筑特点：城址处于绿洲与荒漠过渡地带，以夯土城垣和房址遗存为主，布局紧凑，强调防风、防御和水源依托，体现西域绿洲城镇适应干旱环境的建筑特征。；历史文化价值：该城址是研究汉代西域南道绿洲聚落、交通补给体系和地方治理的重要实物资料。",
    "features": [],
    "imageUrl": "",
    "relatedWorks": [],
    "relatedPersons": []
  },
  {
    "id": "scraped_64",
    "name": "安迪尔古城遗址",
    "type": "官府",
    "dynasty": "汉至唐",
    "period": "先秦两汉",
    "province": "新疆",
    "city": "和田地区",
    "lat": 37.9425,
    "lng": 83.723333,
    "batch": "第五批",
    "isFeatured": false,
    "description": "建造年代：始建于汉代，延续至唐代。；所在地区：位于新疆维吾尔自治区和田地区。；建筑特点：遗址分布于古绿洲环境中，保存城垣、房址和佛寺等遗迹，兼具居住、宗教与交通节点功能，体现丝路南道城镇的多元文化特征。；历史文化价值：安迪尔古城是研究西域绿洲城镇发展、佛教传播和丝绸之路南道贸易交流的重要遗址，对认识塔里木盆地南缘历史变迁具有价值。",
    "features": [],
    "imageUrl": "",
    "relatedWorks": [],
    "relatedPersons": []
  },
  {
    "id": "scraped_65",
    "name": "天妃宫遗址",
    "type": "皇宫",
    "dynasty": "元至清",
    "period": "宋辽金元",
    "province": "天津",
    "city": "天津市",
    "lat": 39.11,
    "lng": 117.238889,
    "batch": "第六批",
    "isFeatured": false,
    "description": "建造年代：始建于元代，明清时期续有修葺。；所在地区：位于天津市。；建筑特点：遗址反映沿海和运河口岸妈祖信仰建筑布局，空间通常由山门、前殿、正殿及附属建筑构成，兼具祭海祈航与商旅公共信仰功能。；历史文化价值：天妃宫遗址与天津城市兴起、漕运交通和海神信仰传播密切相关，是研究海河流域航运文化、民间信仰与港口城市社会结构的重要遗存。",
    "features": [],
    "imageUrl": "",
    "relatedWorks": [],
    "relatedPersons": []
  },
  {
    "id": "scraped_66",
    "name": "东渭桥遗址",
    "type": "桥梁",
    "dynasty": "唐",
    "period": "魏晋隋唐",
    "province": "陕西",
    "city": "西安市",
    "lat": 34.286667,
    "lng": 108.8475,
    "batch": "第五批",
    "isFeatured": false,
    "description": "建造年代：为唐代桥梁遗址。；所在地区：位于陕西省西安市。；建筑特点：遗址反映唐代都城近郊大型桥梁工程形制，桥址与道路、水系关系明确，体现都城外围交通组织和跨河工程技术水平。；历史文化价值：东渭桥遗址是研究唐长安城交通体系、渭河流域桥梁建设和都城周边道路网络的重要材料。",
    "features": [],
    "imageUrl": "",
    "relatedWorks": [],
    "relatedPersons": []
  },
  {
    "id": "scraped_67",
    "name": "秦代造船遗址、国宫署遗址及南越文",
    "type": "皇宫",
    "dynasty": "南越　秦、西汉",
    "period": "先秦两汉",
    "province": "广东",
    "city": "广州市",
    "lat": 23.126389,
    "lng": 113.269722,
    "batch": "第四批",
    "isFeatured": false,
    "description": "建造年代：始于秦代，延续至南越国及西汉时期。；所在地区：位于广东省广州市。；建筑特点：遗址包含造船设施、官署建筑基址及相关遗存，显示岭南早期都城中造船、行政管理与宫署建筑并置的复合格局，反映南方水网环境下城市建设与水上交通的密切关系。；历史文化价值：这一组遗址对于研究秦汉时期岭南地区的国家治理、南越国都城结构、造船工艺和海上交通发展具有重要意义，是广州古代城市史的重要实物见证。",
    "features": [],
    "imageUrl": "",
    "relatedWorks": [],
    "relatedPersons": []
  },
  {
    "id": "scraped_69",
    "name": "孙中山故居",
    "type": "民居",
    "dynasty": "1892年",
    "period": "",
    "province": "广东",
    "city": "中山市",
    "lat": 22.441111,
    "lng": 113.528333,
    "batch": "第三批",
    "isFeatured": false,
    "description": "建造年代：现存建筑形成于1892年前后。；所在地区：位于广东省中山市翠亨村。；建筑特点：住宅为岭南乡村民居与近代外来建筑影响相结合的实例，平面布局整洁，砖木结构结合，立面具有一定近代装饰特征，反映珠江三角洲近代乡村住宅的转型。；历史文化价值：故居保存了孙中山早年生活环境及近代岭南社会文化氛围，对研究近代人物史、华侨文化影响和岭南民居近代化具有重要意义。",
    "features": [],
    "imageUrl": "",
    "relatedWorks": [],
    "relatedPersons": []
  },
  {
    "id": "scraped_70",
    "name": "伊犁将军府",
    "type": "官府",
    "dynasty": "清",
    "period": "明清",
    "province": "新疆",
    "city": "伊犁哈萨克自治州",
    "lat": 43.995833,
    "lng": 80.912778,
    "batch": "第四批",
    "isFeatured": false,
    "description": "建造年代：始建于清代。；所在地区：位于新疆维吾尔自治区伊犁哈萨克自治州。；建筑特点：建筑群作为边疆最高军政机构驻地，布局讲究官署礼制秩序与实际办公需求结合，院落层次清晰，兼具政务、仪典与居住功能，反映清代新疆地区官署建筑特点。；历史文化价值：伊犁将军府是清代治理新疆、实施军政合一边疆管理的重要象征，对研究清代新疆行政制度、边地建筑和多民族地区治理具有重要价值。",
    "features": [],
    "imageUrl": "",
    "relatedWorks": [],
    "relatedPersons": []
  },
  {
    "id": "scraped_71",
    "name": "古城寨城址",
    "type": "官府",
    "dynasty": "新石器时代",
    "period": "先秦两汉",
    "province": "河南",
    "city": "郑州市",
    "lat": 34.461389,
    "lng": 113.644722,
    "batch": "第五批",
    "isFeatured": false,
    "description": "建造年代：为新石器时代城址。；所在地区：位于河南省郑州市。；建筑特点：遗址具有壕沟、城垣或环壕聚落特征，反映早期聚落在防御、公共空间与生活区组织上的初步分工，是中原地区史前聚落向城址过渡的重要类型。；历史文化价值：该城址对于研究中原地区史前社会复杂化、聚落等级分化与早期城防设施出现具有基础性意义。",
    "features": [],
    "imageUrl": "",
    "relatedWorks": [],
    "relatedPersons": []
  },
  {
    "id": "scraped_72",
    "name": "鹿邑太清宫遗址",
    "type": "皇宫",
    "dynasty": "宋、金",
    "period": "宋辽金元",
    "province": "河南",
    "city": "周口市",
    "lat": 33.854722,
    "lng": 115.554722,
    "batch": "第五批",
    "isFeatured": false,
    "description": "建造年代：始建于宋代，金代续建或修缮。；所在地区：位于河南省周口市鹿邑县。；建筑特点：遗址为大型道教宫观遗存，空间组织服务于祭祀、朝谒和道教活动，反映高等级宫观建筑在轴线布置、殿宇序列和礼仪空间方面的特点。；历史文化价值：太清宫与老子信仰、道教朝圣和地方文化传统密切相关，是研究宋金时期道教建筑、宗教传播与鹿邑历史文化地位的重要遗址。",
    "features": [],
    "imageUrl": "",
    "relatedWorks": [],
    "relatedPersons": []
  },
  {
    "id": "scraped_73",
    "name": "临涣城址",
    "type": "官府",
    "dynasty": "战国",
    "period": "先秦两汉",
    "province": "安徽",
    "city": "淮北市",
    "lat": 33.688056,
    "lng": 116.556389,
    "batch": "第六批",
    "isFeatured": false,
    "description": "建造年代：为战国时期城址。；所在地区：位于安徽省淮北市。；建筑特点：城址平面较规整，夯土城垣与内部功能区体现战国时期淮北地区城邑重视防御和区域控制的特点，是皖北平原古城址的代表之一。；历史文化价值：临涣城址对于研究战国时期淮河流域北部政治地理、城邑分布和区域交通联系具有重要资料价值。",
    "features": [],
    "imageUrl": "",
    "relatedWorks": [],
    "relatedPersons": []
  },
  {
    "id": "scraped_74",
    "name": "平粮台古城遗址",
    "type": "官府",
    "dynasty": "新石器时代",
    "period": "先秦两汉",
    "province": "河南",
    "city": "周口市",
    "lat": 33.683611,
    "lng": 114.9075,
    "batch": "第三批",
    "isFeatured": false,
    "description": "建造年代：为新石器时代城址。；所在地区：位于河南省周口市淮阳区。；建筑特点：城址平面方整，设有城垣、壕沟和排水设施，内部聚落组织较有条理，显示出较早的规划意识和公共工程建设水平，是中国史前城址中保存较典型的一例。；历史文化价值：平粮台古城对研究龙山时代早期城市萌芽、聚落规划和排水工程技术具有重要意义，是探讨中国早期国家形成的重要证据。",
    "features": [],
    "imageUrl": "",
    "relatedWorks": [],
    "relatedPersons": []
  },
  {
    "id": "scraped_75",
    "name": "周恩来故居",
    "type": "民居",
    "dynasty": "1898－1910年",
    "period": "",
    "province": "江苏",
    "city": "淮安市",
    "lat": 33.5075,
    "lng": 119.143333,
    "batch": "第三批",
    "isFeatured": false,
    "description": "建造年代：为1898年至1910年使用的民居。；所在地区：位于江苏省淮安市淮安区。；建筑特点：故居为苏北传统宅院，院落式布局清楚，厅房、厢房和生活空间完整，兼具地方民居实用性与书香家庭居住特点。；历史文化价值：该故居保存了周恩来青少年时期生活环境，是研究近代人物成长背景和淮安地方住宅文化的重要场所。",
    "features": [],
    "imageUrl": "",
    "relatedWorks": [],
    "relatedPersons": []
  },
  {
    "id": "scraped_76",
    "name": "西安城墙",
    "type": "官府",
    "dynasty": "明",
    "period": "明清",
    "province": "陕西",
    "city": "西安市",
    "lat": 34.269722,
    "lng": 108.925278,
    "batch": "第一批",
    "isFeatured": false,
    "description": "建造年代：始建于明代。；所在地区：位于陕西省西安市。；建筑特点：城墙平面近方形，城垣高厚，设有城门、瓮城、箭楼、角楼、马面和护城河，防御体系完整，砖石包砌与夯土墙体结合，代表了明代都城级城防工程的成熟水平。；历史文化价值：西安城墙是中国保存较完整的大型古代城垣之一，对研究明代城市防御、都城与府城体制、城防工程技术和西安城市发展具有突出意义。",
    "features": [],
    "imageUrl": "",
    "relatedWorks": [],
    "relatedPersons": []
  },
  {
    "id": "scraped_77",
    "name": "华清宫遗址",
    "type": "皇宫",
    "dynasty": "唐",
    "period": "魏晋隋唐",
    "province": "陕西",
    "city": "西安市",
    "lat": 34.363889,
    "lng": 109.213333,
    "batch": "第四批",
    "isFeatured": false,
    "description": "建造年代：主要兴盛于唐代。；所在地区：位于陕西省西安市临潼区。；建筑特点：宫苑依骊山与温泉资源布局，宫殿、浴池、苑囿和道路空间结合自然地形展开，体现唐代离宫建筑将景观、休憩、礼仪与居住功能融为一体的特点。；历史文化价值：华清宫遗址与唐代宫廷生活、帝王巡幸和山水宫苑文化密切相关，对研究唐代离宫制度、温泉利用和宫苑审美具有重要价值。",
    "features": [],
    "imageUrl": "",
    "relatedWorks": [],
    "relatedPersons": []
  },
  {
    "id": "scraped_80",
    "name": "灞桥遗址",
    "type": "桥梁",
    "dynasty": "隋－元",
    "period": "魏晋隋唐",
    "province": "陕西",
    "city": "西安市",
    "lat": 34.269444,
    "lng": 109.002778,
    "batch": "第四批",
    "isFeatured": false,
    "description": "建造年代：始建于隋代，延续使用至元代。；所在地区：位于陕西省西安市。；建筑特点：桥址跨越灞河，长期沿用形成多期叠压遗迹，反映古代都城东出通道上的重要桥渡设施，其结构与位置体现跨河交通与道路体系的持续性。；历史文化价值：灞桥遗址对研究隋唐以降长安地区交通格局、桥梁工程演变和区域道路网络具有重要意义。",
    "features": [],
    "imageUrl": "",
    "relatedWorks": [],
    "relatedPersons": []
  },
  {
    "id": "scraped_81",
    "name": "胡氏古民居建筑",
    "type": "民居",
    "dynasty": "明、清",
    "period": "明清",
    "province": "甘肃",
    "city": "天水市",
    "lat": 34.580833,
    "lng": 105.724167,
    "batch": "第五批",
    "isFeatured": false,
    "description": "建造年代：始建于明代，清代续有扩建。；所在地区：位于甘肃省天水市。；建筑特点：建筑群以西北地区传统合院为基础，院落组合紧凑，砖木结构与高墙深院相结合，门楼、木雕和砖雕细部反映陇东南民居工艺特色。；历史文化价值：该建筑群是研究甘肃东南部传统民居营造、家族聚居和地方社会生活的重要实例，对认识西北民居与中原工艺交流具有价值。",
    "features": [],
    "imageUrl": "",
    "relatedWorks": [],
    "relatedPersons": []
  },
  {
    "id": "scraped_82",
    "name": "西安钟楼、鼓楼",
    "type": "官府",
    "dynasty": "明",
    "period": "明清",
    "province": "陕西",
    "city": "西安市",
    "lat": 34.26,
    "lng": 108.943611,
    "batch": "第四批",
    "isFeatured": false,
    "description": "建造年代：建于明代。；所在地区：位于陕西省西安市。；建筑特点：钟楼、鼓楼分别作为城市报时与礼仪性公共建筑，体量高大，木构楼阁式结构稳健，位于城市交通枢纽或核心区域，兼具城市地标、报时和礼仪功能。；历史文化价值：两楼共同反映明代城市管理与公共时间秩序，是研究古代城市公共建筑体系、城市空间组织和楼阁建筑形式的重要实例。",
    "features": [],
    "imageUrl": "",
    "relatedWorks": [],
    "relatedPersons": []
  },
  {
    "id": "scraped_83",
    "name": "通古斯巴西城址",
    "type": "官府",
    "dynasty": "唐",
    "period": "魏晋隋唐",
    "province": "新疆",
    "city": "阿克苏地区",
    "lat": 41.264167,
    "lng": 82.3775,
    "batch": "第六批",
    "isFeatured": false,
    "description": "建造年代：为唐代城址。；所在地区：位于新疆维吾尔自治区阿克苏地区。；建筑特点：城址以夯土城垣和内部遗迹为主，布局服务于西域交通控制、驻军和地方管理，体现唐代安西地区城镇建筑与军政体系结合的特点。；历史文化价值：该城址是研究唐代西域治理、丝绸之路北道城镇体系和边疆军事行政布局的重要遗存。",
    "features": [],
    "imageUrl": "",
    "relatedWorks": [],
    "relatedPersons": []
  },
  {
    "id": "scraped_84",
    "name": "和硕恪靖公主府",
    "type": "官府",
    "dynasty": "清",
    "period": "明清",
    "province": "内蒙古",
    "city": "呼和浩特市",
    "lat": 40.838056,
    "lng": 111.654444,
    "batch": "第五批",
    "isFeatured": false,
    "description": "建造年代：建于清代。；所在地区：位于内蒙古自治区呼和浩特市。；建筑特点：府第布局规整，院落层层推进，兼有王公府邸礼制秩序和塞外地区建筑适应性，木构厅堂与居住院落关系明确，反映清代边疆贵族府第建筑风貌。；历史文化价值：该建筑与清代蒙地治理、皇室联姻和边疆政治关系密切相关，是研究清代公主府制度、呼和浩特城市史和民族交流的重要实例。",
    "features": [],
    "imageUrl": "",
    "relatedWorks": [],
    "relatedPersons": []
  },
  {
    "id": "scraped_85",
    "name": "永通桥（小石桥）",
    "type": "桥梁",
    "dynasty": "金",
    "period": "宋辽金元",
    "province": "河北",
    "city": "石家庄市",
    "lat": 37.753611,
    "lng": 114.760556,
    "batch": "第一批",
    "isFeatured": false,
    "description": "建造年代：建于金代。；所在地区：位于河北省石家庄市赵县。；建筑特点：桥梁为石拱结构，形制紧凑，石券砌筑严谨，体现北方古代中小型石桥在受力组织、桥面过渡和耐久性方面的成熟经验。；历史文化价值：永通桥与赵州桥同处赵县桥梁文化传统之中，对研究金代石桥工程、区域交通设施和华北石桥技术延续具有重要意义。",
    "features": [],
    "imageUrl": "",
    "relatedWorks": [],
    "relatedPersons": []
  },
  {
    "id": "scraped_86",
    "name": "归城城址",
    "type": "官府",
    "dynasty": "周",
    "period": "先秦两汉",
    "province": "山东",
    "city": "烟台市",
    "lat": 37.551944,
    "lng": 120.555,
    "batch": "第六批",
    "isFeatured": false,
    "description": "建造年代：为周代城址。；所在地区：位于山东省烟台市。；建筑特点：城址反映胶东地区早期城邑的夯土筑城传统，平面布局兼顾防御与聚落中心功能，是海岱地区周代地方城邑的代表类型之一。；历史文化价值：该城址对研究周代胶东地区政治地理、城邑体系和东部沿海区域开发具有较高参考价值。",
    "features": [],
    "imageUrl": "",
    "relatedWorks": [],
    "relatedPersons": []
  },
  {
    "id": "scraped_88",
    "name": "平遥城墙",
    "type": "官府",
    "dynasty": "明",
    "period": "明清",
    "province": "山西",
    "city": "晋中市",
    "lat": 37.2079,
    "lng": 112.1704,
    "batch": "第三批",
    "isFeatured": false,
    "description": "建造年代：始建于明代。；所在地区：位于山西省晋中市平遥县。；建筑特点：城墙平面近方形，城门、瓮城、敌楼、角楼、马面与护城河体系完备，防御设施保存完整，并与城内街巷和传统民居共同构成完整古城格局。；历史文化价值：平遥城墙是明清县城防御体系和晋商城镇空间保存较好的实例，对研究中国古代县城形制、城防工程和商业城市发展具有重要意义。",
    "features": [],
    "imageUrl": "",
    "relatedWorks": [],
    "relatedPersons": []
  },
  {
    "id": "scraped_89",
    "name": "聊城山陕会馆",
    "type": "民居",
    "dynasty": "清",
    "period": "明清",
    "province": "山东",
    "city": "聊城市",
    "lat": 36.439167,
    "lng": 115.979722,
    "batch": "第三批",
    "isFeatured": false,
    "description": "建造年代：建于清代。；所在地区：位于山东省聊城市东昌府区。；建筑特点：会馆建筑群由戏楼、山门、正殿及附属院落组成，雕刻和彩绘装饰繁富，建筑兼具祭祀、议事、宴集和演戏功能，体现商帮会馆重视公共性与展示性的特点。；历史文化价值：该会馆见证清代运河商贸繁荣和山陕商人组织活动，对研究会馆文化、商帮网络和运河城市社会生活具有重要价值。",
    "features": [],
    "imageUrl": "",
    "relatedWorks": [],
    "relatedPersons": []
  },
  {
    "id": "scraped_90",
    "name": "大名府故城",
    "type": "官府",
    "dynasty": "宋",
    "period": "宋辽金元",
    "province": "河北",
    "city": "邯郸市",
    "lat": 36.296389,
    "lng": 115.212778,
    "batch": "第六批",
    "isFeatured": false,
    "description": "建造年代：为宋代城址。；所在地区：位于河北省邯郸市大名县。；建筑特点：城址规模较大，反映北宋重要府城在城防、政务和交通组织方面的格局，城垣与城内功能区布局体现北方平原大城的典型特征。；历史文化价值：大名府在宋代北方政治、军事和交通体系中地位重要，其故城遗址对研究宋代府州城市史、边防格局和华北平原城镇发展具有突出意义。",
    "features": [],
    "imageUrl": "",
    "relatedWorks": [],
    "relatedPersons": []
  },
  {
    "id": "b19",
    "name": "布达拉宫",
    "type": "皇宫",
    "dynasty": "明至民国",
    "period": "明清",
    "province": "西藏",
    "city": "拉萨市",
    "lat": 29.654722,
    "lng": 91.119167,
    "batch": "第一批",
    "isFeatured": true,
    "description": "始建于17世纪，后经清代至民国时期持续扩建修缮。 位于西藏自治区拉萨市。 宫殿建筑群依红山山体逐级上升，白宫与红宫分区明确，石木结构与厚墙小窗、高原适应性屋面做法相结合，集宫殿、寺院和灵塔殿于一体，形成极具辨识度的层叠式高原建筑景观。 布达拉宫是西藏地方政教合一历史体制和藏传佛教建筑艺术的杰出代表，对研究西藏政治史、宗教史、宫殿寺院复合建筑及高原营造技术具有极高价值。",
    "features": [],
    "imageUrl": "/images/buildings/b19.jpg",
    "relatedWorks": [],
    "relatedPersons": [],
    "tagline": "雪域高原之上，一座红白相间的宫殿矗立于玛布日山，俯瞰拉萨城千年。布达拉宫既是藏传佛教的圣地，也是历代达赖喇嘛的冬宫，那层叠的殿宇之中，藏着雪域文明最深沉的信仰与荣光。"
  },
  {
    "id": "scraped_92",
    "name": "白鹿书院",
    "type": "民居",
    "dynasty": "清",
    "period": "明清",
    "province": "江西",
    "city": "九江市",
    "lat": 29.516111,
    "lng": 116.041389,
    "batch": "第三批",
    "isFeatured": false,
    "description": "建造年代：现存建筑主要为清代。；所在地区：位于江西省九江市。；建筑特点：书院建筑一般沿中轴布置门厅、讲堂、祠堂和斋舍，庭院层层递进，兼顾讲学、祭祀和居住功能，体现传统书院重视礼学秩序与教育空间结合的特征。；历史文化价值：白鹿书院反映地方文教传统和书院教育制度，对研究清代地方书院布局、儒学传播和区域文脉传承具有价值。",
    "features": [],
    "imageUrl": "",
    "relatedWorks": [],
    "relatedPersons": []
  },
  {
    "id": "scraped_93",
    "name": "东阳户宅",
    "type": "民居",
    "dynasty": "明至清",
    "period": "明清",
    "province": "浙江",
    "city": "金华市",
    "lat": 29.2742,
    "lng": 120.2589,
    "batch": "第三批",
    "isFeatured": false,
    "description": "建造年代：始建于明代，清代续有修缮。；所在地区：位于浙江省金华市东阳市。；建筑特点：住宅院落布局严谨，木构架工整，门罩、梁架与木雕装饰体现浙中民居精细工艺，空间组织强调家族起居、祭祖与待客功能分区。；历史文化价值：东阳户宅是研究浙中地区明清民居、东阳木雕工艺和地方家族生活方式的重要实例。",
    "features": [],
    "imageUrl": "",
    "relatedWorks": [],
    "relatedPersons": []
  },
  {
    "id": "scraped_94",
    "name": "西秦会馆",
    "type": "民居",
    "dynasty": "清",
    "period": "明清",
    "province": "四川",
    "city": "自贡市",
    "lat": 29.348611,
    "lng": 104.771111,
    "batch": "第三批",
    "isFeatured": false,
    "description": "建造年代：建于清代。；所在地区：位于四川省自贡市。；建筑特点：会馆建筑群布局完整，戏楼、殿宇、院落和厢房相互配合，木雕、石雕和彩绘丰富，兼具神祠祭祀、商人议事与公共演剧功能，具有盐业城市会馆建筑鲜明特色。；历史文化价值：该会馆见证清代陕西商人参与川南盐业经营和地方社会活动的历史，对研究会馆制度、商帮文化和自贡城市发展具有重要意义。",
    "features": [],
    "imageUrl": "",
    "relatedWorks": [],
    "relatedPersons": []
  },
  {
    "id": "scraped_95",
    "name": "祥集弄民宅",
    "type": "民居",
    "dynasty": "明",
    "period": "明清",
    "province": "江西",
    "city": "景德镇市",
    "lat": 29.285278,
    "lng": 117.211667,
    "batch": "第三批",
    "isFeatured": false,
    "description": "建造年代：为明代民居。；所在地区：位于江西省景德镇市。；建筑特点：民宅位于传统里弄空间中，院落尺度适中，砖木结构与地方做法结合，空间组织服务于家庭居住并与手工业城市生活相适应，体现赣东北城市民居特征。；历史文化价值：该民宅是研究景德镇传统街巷居住形态、明代城市民居和手工业城市社会生活的重要实例。",
    "features": [],
    "imageUrl": "",
    "relatedWorks": [],
    "relatedPersons": []
  },
  {
    "id": "scraped_96",
    "name": "赣州城墙",
    "type": "官府",
    "dynasty": "宋、明",
    "period": "宋辽金元",
    "province": "江西",
    "city": "赣州市",
    "lat": 25.870833,
    "lng": 114.94,
    "batch": "第四批",
    "isFeatured": false,
    "description": "建造年代：始建于宋代，明代续有修筑。；所在地区：位于江西省赣州市章贡区。；建筑特点：城墙依章江、贡江及地势组织防御，城垣、城门和局部城台遗存较具特色，兼有水陆联防与山水城池结合的特点。；历史文化价值：赣州城墙体现宋明时期赣南重镇的城市防御和水陆交通格局，对研究南方山水城市的城防体系和区域治理具有重要意义。",
    "features": [],
    "imageUrl": "",
    "relatedWorks": [],
    "relatedPersons": []
  },
  {
    "id": "scraped_97",
    "name": "巄嶼图山城址",
    "type": "官府",
    "dynasty": "唐",
    "period": "魏晋隋唐",
    "province": "云南",
    "city": "大理白族自治州",
    "lat": 25.226944,
    "lng": 100.306944,
    "batch": "第六批",
    "isFeatured": false,
    "description": "建造年代：为唐代城址。；所在地区：位于云南省大理白族自治州。；建筑特点：山城依险而建，利用高地与山坡组织城垣和内部空间，具有较强防御性，反映西南地区山地政权城址善于结合自然地形的营造方式。；历史文化价值：该城址为研究唐代云南地区地方政权活动、山城防御体系和西南边地历史地理提供了重要材料。",
    "features": [],
    "imageUrl": "",
    "relatedWorks": [],
    "relatedPersons": []
  },
  {
    "id": "scraped_98",
    "name": "蔡氏古民居建筑群",
    "type": "民居",
    "dynasty": "清",
    "period": "明清",
    "province": "福建",
    "city": "泉州市",
    "lat": 24.8093,
    "lng": 118.4081,
    "batch": "第五批",
    "isFeatured": false,
    "description": "建造年代：建于清代。；所在地区：位于福建省泉州市。；建筑特点：建筑群由多座闽南大厝组成，红砖白石墙、燕尾脊、深进院落和精美木石雕装饰相互结合，平面组织重视宗族聚居和礼仪秩序，具有鲜明闽南地域风格。；历史文化价值：该建筑群反映清代泉州地区宗族社会、侨乡经济和闽南传统营造技艺，对研究闽南民居类型及地方文化传承具有重要意义。",
    "features": [],
    "imageUrl": "",
    "relatedWorks": [],
    "relatedPersons": []
  },
  {
    "id": "scraped_99",
    "name": "社旗山陕会馆",
    "type": "民居",
    "dynasty": "清",
    "period": "明清",
    "province": "河南",
    "city": "南阳市",
    "lat": 33.055,
    "lng": 112.945556,
    "batch": "第三批",
    "isFeatured": false,
    "description": "建造年代：建于清代。；所在地区：位于河南省南阳市社旗县。；建筑特点：会馆规模较大，山门、戏楼、大殿及院落轴线严整，木雕、砖雕、石雕和彩绘装饰华丽，兼具神祠祭祀、商旅聚会和戏曲演出功能。；历史文化价值：该会馆是清代赊店商贸繁荣和山陕商帮活动的重要见证，对研究内陆商业网络、会馆建筑艺术与地方社会生活具有突出意义。",
    "features": [],
    "imageUrl": "",
    "relatedWorks": [],
    "relatedPersons": []
  },
  {
    "id": "scraped_100",
    "name": "紫霄宫",
    "type": "皇宫",
    "dynasty": "明",
    "period": "明清",
    "province": "湖北",
    "city": "十堰市",
    "lat": 32.4259,
    "lng": 111.0231,
    "batch": "第二批",
    "isFeatured": false,
    "description": "建造年代：始建于明代。；所在地区：位于湖北省十堰市武当山。；建筑特点：宫观依山势分层布局，殿堂、院落与台地空间顺势展开，木石结构结合，体现武当山道教建筑重视山林环境、朝拜路径和宫观层级关系的特点。；历史文化价值：紫霄宫是武当山道教建筑群的重要组成部分，对研究明代皇家崇道、山地宫观布局和武当山宗教文化传统具有重要意义。",
    "features": [],
    "imageUrl": "",
    "relatedWorks": [],
    "relatedPersons": []
  },
  {
    "id": "scraped_101",
    "name": "玉虚宫遗址",
    "type": "皇宫",
    "dynasty": "明",
    "period": "明清",
    "province": "湖北",
    "city": "十堰市",
    "lat": 32.404722,
    "lng": 111.015278,
    "batch": "第五批",
    "isFeatured": false,
    "description": "建造年代：始建于明代。；所在地区：位于湖北省十堰市武当山。；建筑特点：遗址规模宏阔，反映武当山大型道教宫观建筑曾有完整的殿宇、院落和附属设施体系，轴线与院落关系体现皇家敕建宫观的礼制规格。；历史文化价值：玉虚宫遗址见证明代武当山作为国家级道教圣地的营建活动，是研究明代道教政策、宫观制度和山地大型建筑遗址的重要材料。",
    "features": [],
    "imageUrl": "",
    "relatedWorks": [],
    "relatedPersons": []
  },
  {
    "id": "scraped_102",
    "name": "沈府君阙",
    "type": "官府",
    "dynasty": "东汉",
    "period": "先秦两汉",
    "province": "四川",
    "city": "达州市",
    "lat": 31.0535,
    "lng": 107.0065,
    "batch": "第一批",
    "isFeatured": false,
    "description": "建造年代：为东汉时期阙类遗存。；所在地区：位于四川省达州市。；建筑特点：石阙仿木构形制明显，阙身、阙顶及雕刻内容丰富，是汉代墓前或祠庙前礼制门阙的典型形式，兼具纪念、礼仪与象征功能。；历史文化价值：沈府君阙对于研究东汉礼制建筑、四川地区石刻艺术和汉代地方社会纪念传统具有重要价值。",
    "features": [],
    "imageUrl": "",
    "relatedWorks": [],
    "relatedPersons": []
  },
  {
    "id": "scraped_103",
    "name": "十二桥遗址",
    "type": "桥梁",
    "dynasty": "商至西周",
    "period": "先秦两汉",
    "province": "四川",
    "city": "成都市",
    "lat": 30.663056,
    "lng": 104.046389,
    "batch": "第五批",
    "isFeatured": false,
    "description": "建造年代：始于商代，延续至西周。；所在地区：位于四川省成都市。；建筑特点：遗址包含与桥渡、道路和都邑环境相关的考古遗存，反映古蜀地区早期城市在水系环境中的交通组织和工程处理方式。；历史文化价值：十二桥遗址是研究商周时期成都平原聚落、水网适应和古蜀文明都邑建设的重要资料。",
    "features": [],
    "imageUrl": "",
    "relatedWorks": [],
    "relatedPersons": []
  },
  {
    "id": "scraped_104",
    "name": "递铺城址",
    "type": "官府",
    "dynasty": "春秋至南北朝",
    "period": "先秦两汉",
    "province": "浙江",
    "city": "湖州市",
    "lat": 30.627222,
    "lng": 119.6875,
    "batch": "第六批",
    "isFeatured": false,
    "description": "建造年代：始建于春秋时期，延续至南北朝。；所在地区：位于浙江省湖州市安吉县。；建筑特点：城址具有长时段沿用特征，依山水地形营建，兼顾防御、治所与聚落中心功能，反映浙西地区城址对丘陵与水系环境的适应。；历史文化价值：该城址对研究太湖南缘古代城邑发展、吴越文化区域联系和地方政区变迁具有重要参考价值。",
    "features": [],
    "imageUrl": "",
    "relatedWorks": [],
    "relatedPersons": []
  },
  {
    "id": "scraped_105",
    "name": "茅盾故居",
    "type": "民居",
    "dynasty": "1896－1910年",
    "period": "",
    "province": "浙江",
    "city": "嘉兴市",
    "lat": 30.738333,
    "lng": 120.493611,
    "batch": "第三批",
    "isFeatured": false,
    "description": "建造年代：为1896年至1910年使用的晚清民居。；所在地区：位于浙江省嘉兴市桐乡市乌镇。；建筑特点：建筑为江南水乡沿河民居，前店后宅或临街临水布局明显，木构与粉墙黛瓦相结合，空间组织体现江南镇市住宅与商业环境的密切联系。；历史文化价值：故居保存了近代文学家早年生活环境，也反映乌镇传统民居与水乡社会生活形态，对研究近代文化人物史和江南城镇住宅具有意义。",
    "features": [],
    "imageUrl": "",
    "relatedWorks": [],
    "relatedPersons": []
  },
  {
    "id": "scraped_106",
    "name": "季家湖城址",
    "type": "官府",
    "dynasty": "东周",
    "period": "先秦两汉",
    "province": "湖北",
    "city": "宜昌市",
    "lat": 30.5679,
    "lng": 111.995,
    "batch": "第五批",
    "isFeatured": false,
    "description": "建造年代：为东周时期城址。；所在地区：位于湖北省宜昌市。；建筑特点：城址依江汉地区地理条件布置，城垣和内部遗迹反映东周时期区域城邑在防御、聚落管理与交通联系方面的基本功能。；历史文化价值：该城址是研究鄂西地区东周政治格局、楚文化传播和长江中游城邑体系的重要遗址。",
    "features": [],
    "imageUrl": "",
    "relatedWorks": [],
    "relatedPersons": []
  },
  {
    "id": "scraped_107",
    "name": "台州府城墙",
    "type": "官府",
    "dynasty": "宋至清",
    "period": "宋辽金元",
    "province": "浙江",
    "city": "台州市",
    "lat": 28.837778,
    "lng": 121.123333,
    "batch": "第五批",
    "isFeatured": false,
    "description": "建造年代：始建于宋代，明清时期续有修筑。；所在地区：位于浙江省台州市临海市。；建筑特点：城墙依山就势、临江设防，局部顺应地形起伏形成多变墙体线条，城门、城楼和敌台体系较完整，兼具军事防御与山城景观特征。；历史文化价值：台州府城墙体现东南沿海府城在山海环境中的防御智慧，对研究宋明以来府城建设、海防背景下的城市防御和地方城市史具有重要意义。",
    "features": [],
    "imageUrl": "",
    "relatedWorks": [],
    "relatedPersons": []
  },
  {
    "id": "scraped_108",
    "name": "夕佳山民居",
    "type": "民居",
    "dynasty": "明、清",
    "period": "明清",
    "province": "四川",
    "city": "宜宾市",
    "lat": 28.734167,
    "lng": 105.070556,
    "batch": "第四批",
    "isFeatured": false,
    "description": "建造年代：始建于明代，清代续有扩建。；所在地区：位于四川省宜宾市江安县。；建筑特点：建筑群依山地形布置，多进院落和厅堂空间结合，木构穿斗架与高墙院落相配合，体现川南大族住宅兼具居住、防护和祭祖功能的特点。；历史文化价值：夕佳山民居保存了川南地区传统家族聚落和地主宅院格局，对研究地方民居形制、家族礼俗和区域社会生活具有重要价值。",
    "features": [],
    "imageUrl": "",
    "relatedWorks": [],
    "relatedPersons": []
  },
  {
    "id": "scraped_109",
    "name": "如龙桥",
    "type": "桥梁",
    "dynasty": "明",
    "period": "明清",
    "province": "浙江",
    "city": "丽水市",
    "lat": 27.491944,
    "lng": 119.179722,
    "batch": "第五批",
    "isFeatured": false,
    "description": "建造年代：建于明代。；所在地区：位于浙江省丽水市。；建筑特点：桥梁为传统石桥，桥体比例协调，桥面、栏板与桥墩做法体现浙南山区古桥适应溪流环境和行旅交通的工程经验。；历史文化价值：如龙桥反映明代浙南山区桥梁建设水平和地方交通网络，对研究山区石桥技术与乡村交通史具有意义。",
    "features": [],
    "imageUrl": "",
    "relatedWorks": [],
    "relatedPersons": []
  },
  {
    "id": "scraped_110",
    "name": "大宝积宫与琉璃殿",
    "type": "皇宫",
    "dynasty": "明",
    "period": "明清",
    "province": "云南",
    "city": "丽江市",
    "lat": 26.873611,
    "lng": 100.233611,
    "batch": "第四批",
    "isFeatured": false,
    "description": "建造年代：建于明代。；所在地区：位于云南省丽江市。；建筑特点：建筑群融合中原宫殿式布局与纳西地区地方营造传统，殿宇屋面、琉璃构件和院落组织富有层次，体现西南地区高等级宗教或礼制建筑的独特面貌。；历史文化价值：该建筑群对研究明代西南地区建筑文化交流、地方政权与宗教关系以及琉璃建筑构件使用具有重要价值。",
    "features": [],
    "imageUrl": "",
    "relatedWorks": [],
    "relatedPersons": []
  },
  {
    "id": "scraped_111",
    "name": "石阡万寿宫",
    "type": "皇宫",
    "dynasty": "明",
    "period": "明清",
    "province": "贵州",
    "city": "铜仁市",
    "lat": 27.522778,
    "lng": 108.231944,
    "batch": "第五批",
    "isFeatured": false,
    "description": "建造年代：始建于明代。；所在地区：位于贵州省铜仁市石阡县。；建筑特点：万寿宫作为江西会馆性质的公共建筑，通常由门楼、戏台、正殿和院落组成，兼具祭祀、议事和社交功能，木雕和装饰做法体现商帮会馆建筑特点。；历史文化价值：该建筑反映外来商帮进入黔东北后的组织方式和地方社会联系，对研究会馆文化、移民经商与区域交流具有意义。",
    "features": [],
    "imageUrl": "",
    "relatedWorks": [],
    "relatedPersons": []
  },
  {
    "id": "scraped_112",
    "name": "福泉城墙",
    "type": "官府",
    "dynasty": "明",
    "period": "明清",
    "province": "贵州",
    "city": "黔南布依族苗族自治州",
    "lat": 26.697222,
    "lng": 107.509444,
    "batch": "第五批",
    "isFeatured": false,
    "description": "建造年代：建于明代。；所在地区：位于贵州省黔南布依族苗族自治州福泉市。；建筑特点：城墙依山体和地形展开，局部险峻，城门与墙体结合紧密，体现西南山地城防建筑因地制宜、重视山势利用的特点。；历史文化价值：福泉城墙对研究明代西南地区卫所防御、山地城市建设和贵州古城发展史具有重要意义。",
    "features": [],
    "imageUrl": "",
    "relatedWorks": [],
    "relatedPersons": []
  },
  {
    "id": "scraped_113",
    "name": "陈太尉宫",
    "type": "皇宫",
    "dynasty": "宋至清",
    "period": "宋辽金元",
    "province": "福建",
    "city": "福州市",
    "lat": 26.598889,
    "lng": 119.4275,
    "batch": "第五批",
    "isFeatured": false,
    "description": "建造年代：始建于宋代，现存建筑多经明清时期修缮。；所在地区：位于福建省福州市。；建筑特点：建筑群兼具祠庙与宫观性质，院落沿轴线展开，木构架与福州地区传统做法结合，殿宇、戏台及附属空间服务于祭祀和地方公共活动。；历史文化价值：陈太尉宫是研究福建地方信仰、祠庙建筑和闽都地区社会生活的重要实例，对认识地方神祇崇祀与社区组织具有意义。",
    "features": [],
    "imageUrl": "",
    "relatedWorks": [],
    "relatedPersons": []
  },
  {
    "id": "scraped_114",
    "name": "地坪风雨桥",
    "type": "桥梁",
    "dynasty": "清",
    "period": "明清",
    "province": "贵州",
    "city": "黔东南苗族侗族自治州",
    "lat": 25.839722,
    "lng": 109.249444,
    "batch": "第五批",
    "isFeatured": false,
    "description": "建造年代：建于清代。；所在地区：位于贵州省黔东南苗族侗族自治州。；建筑特点：桥梁为侗族风雨桥，桥、廊、亭相结合，木构穿斗架体系完整，桥上设廊屋以供行旅避风雨和社交停留，兼具交通与公共聚会功能。；历史文化价值：地坪风雨桥是侗族木构桥梁技艺和乡村公共空间文化的重要代表，对研究民族建筑传统、木构桥梁工艺和村寨社会生活具有重要价值。",
    "features": [],
    "imageUrl": "",
    "relatedWorks": [],
    "relatedPersons": []
  },
  {
    "id": "scraped_115",
    "name": "马田鼓楼",
    "type": "官府",
    "dynasty": "清",
    "period": "明清",
    "province": "湖南",
    "city": "怀化市",
    "lat": 25.945833,
    "lng": 109.77,
    "batch": "第四批",
    "isFeatured": false,
    "description": "建造年代：建于清代。；所在地区：位于湖南省怀化市。；建筑特点：鼓楼为侗族村寨公共建筑，采用多层木构穿斗架和攒尖屋顶，中心立柱与层层出檐构成高耸挺拔的体量，是村寨议事、集会和礼仪活动的核心空间。；历史文化价值：马田鼓楼反映侗族村寨社会组织、公共生活和木构营造技艺，对研究西南民族建筑类型和社区制度具有重要意义。",
    "features": [],
    "imageUrl": "",
    "relatedWorks": [],
    "relatedPersons": []
  },
  {
    "id": "scraped_116",
    "name": "岜团桥",
    "type": "桥梁",
    "dynasty": "清",
    "period": "明清",
    "province": "广西",
    "city": "柳州市",
    "lat": 25.7831,
    "lng": 109.6077,
    "batch": "第五批",
    "isFeatured": false,
    "description": "建造年代：建于清代。；所在地区：位于广西壮族自治区柳州市。；建筑特点：桥梁结合地方石木结构经验建造，适应山地溪流环境，桥体稳定实用，是区域道路系统中的重要通道设施。；历史文化价值：岜团桥见证桂北地区传统桥梁建设和山地交通发展，对研究地方工程技艺和区域联系具有一定意义。",
    "features": [],
    "imageUrl": "",
    "relatedWorks": [],
    "relatedPersons": []
  },
  {
    "id": "scraped_117",
    "name": "潞泽会馆",
    "type": "民居",
    "dynasty": "清",
    "period": "明清",
    "province": "河南",
    "city": "洛阳市",
    "lat": 34.678611,
    "lng": 112.49,
    "batch": "第五批",
    "isFeatured": false,
    "description": "建造年代：建于清代。；所在地区：位于河南省洛阳市。；建筑特点：会馆建筑群由殿宇、院落和戏台等组成，兼具行业祭祀、同乡聚会与商务联络功能，整体布局强调公共性和礼仪性。；历史文化价值：潞泽会馆反映清代洛阳商业网络和晋东南商人活动，对研究同乡会馆制度、商业移民文化和城市社会史具有价值。",
    "features": [],
    "imageUrl": "",
    "relatedWorks": [],
    "relatedPersons": []
  },
  {
    "id": "scraped_118",
    "name": "开封城墙",
    "type": "官府",
    "dynasty": "清",
    "period": "明清",
    "province": "河南",
    "city": "开封市",
    "lat": 34.791944,
    "lng": 114.345,
    "batch": "第四批",
    "isFeatured": false,
    "description": "建造年代：现存城墙主要形成于清代。；所在地区：位于河南省开封市。；建筑特点：城墙结合黄河水患环境进行修筑和维护，城垣、城门与城市街巷相配合，体现平原城市在防御与防洪双重压力下的城防特点。；历史文化价值：开封城墙是研究清代府城建设、黄河影响下的城市空间调整及古都延续发展的重要遗存。",
    "features": [],
    "imageUrl": "",
    "relatedWorks": [],
    "relatedPersons": []
  },
  {
    "id": "scraped_119",
    "name": "山陕甘会馆",
    "type": "民居",
    "dynasty": "清",
    "period": "明清",
    "province": "河南",
    "city": "开封市",
    "lat": 34.796944,
    "lng": 114.353333,
    "batch": "第五批",
    "isFeatured": false,
    "description": "建造年代：建于清代。；所在地区：位于河南省开封市。；建筑特点：会馆建筑富于雕饰，戏楼、牌楼、殿宇与院落组合完整，兼具祭祀关帝、商人议事和戏曲演出功能，是大型商帮会馆建筑的典型。；历史文化价值：该会馆反映清代开封商业繁荣和山陕甘商人组织活动，对研究黄河流域商业网络、会馆文化和传统公共建筑艺术具有重要意义。",
    "features": [],
    "imageUrl": "",
    "relatedWorks": [],
    "relatedPersons": []
  },
  {
    "id": "scraped_120",
    "name": "康百万庄园",
    "type": "民居",
    "dynasty": "清",
    "period": "明清",
    "province": "河南",
    "city": "郑州市",
    "lat": 34.764167,
    "lng": 112.946944,
    "batch": "第五批",
    "isFeatured": false,
    "description": "建造年代：建于清代。；所在地区：位于河南省郑州市巩义市。；建筑特点：庄园依塬就势，窑洞与地面院落结合，院院相套、层层递进，兼具北方庄园的防御性、礼制性与经营性，体现豫西地区大户宅院因地制宜的营造方式。；历史文化价值：康百万庄园是研究中原地区地主庄园经济、河洛民居形态和家族经营文化的重要实例，对认识清代地方社会结构具有重要意义。",
    "features": [],
    "imageUrl": "",
    "relatedWorks": [],
    "relatedPersons": []
  },
  {
    "id": "scraped_121",
    "name": "青、白礁慈济宫",
    "type": "皇宫",
    "dynasty": "宋－清",
    "period": "宋辽金元",
    "province": "福建",
    "city": "漳州市；厦门市",
    "lat": 24.485278,
    "lng": 117.973611,
    "batch": "第四批",
    "isFeatured": false,
    "description": "建造年代：始建于宋代，后历经元明清时期修葺。；所在地区：位于福建省漳州市龙海区白礁及厦门市海沧区青礁。；建筑特点：两处慈济宫均为闽南地区重要民间信仰建筑，院落布局以山门、拜亭、正殿为核心，红砖白石、燕尾脊和木石雕装饰鲜明，反映闽南庙宇建筑传统。；历史文化价值：慈济宫与保生大帝信仰传播密切相关，是闽南民间宗教、海峡两岸共同信仰文化和地方社会组织的重要实物载体。",
    "features": [],
    "imageUrl": "",
    "relatedWorks": [],
    "relatedPersons": []
  },
  {
    "id": "scraped_122",
    "name": "成都平原史前城址",
    "type": "官府",
    "dynasty": "新石器时代",
    "period": "先秦两汉",
    "province": "四川",
    "city": "成都市",
    "lat": 30.4341,
    "lng": 103.7587,
    "batch": "第五批",
    "isFeatured": false,
    "description": "建造年代：为新石器时代遗址群。；所在地区：位于四川省成都市平原地区。；建筑特点：遗址群包括多处环壕、城墙和聚落遗存，反映成都平原史前聚落已形成较为复杂的等级结构和区域网络，展示了早期城市萌芽在平原水网环境中的组织方式。；历史文化价值：这一遗址群是研究古蜀文明起源、史前城址体系和区域社会复杂化进程的重要基础资料。",
    "features": [],
    "imageUrl": "",
    "relatedWorks": [],
    "relatedPersons": []
  },
  {
    "id": "scraped_123",
    "name": "潜口民宅",
    "type": "民居",
    "dynasty": "明",
    "period": "明清",
    "province": "安徽",
    "city": "黄山市",
    "lat": 29.8678,
    "lng": 118.2979,
    "batch": "第三批",
    "isFeatured": false,
    "description": "建造年代：始建于明代。；所在地区：位于安徽省黄山市徽州区。；建筑特点：建筑群集中保存徽州地区传统民居，白墙黛瓦、马头墙、高深天井与木雕门罩相结合，布局重视宗族礼序和商业家族居住需求，是徽派民居代表类型。；历史文化价值：潜口民宅对研究明代徽州民居、徽商文化、地方营造技艺和古建筑迁建保护实践具有重要意义。",
    "features": [],
    "imageUrl": "",
    "relatedWorks": [],
    "relatedPersons": []
  },
  {
    "id": "scraped_124",
    "name": "跨湖桥遗址",
    "type": "桥梁",
    "dynasty": "新石器时代",
    "period": "先秦两汉",
    "province": "浙江",
    "city": "杭州市",
    "lat": 30.142778,
    "lng": 120.223333,
    "batch": "第六批",
    "isFeatured": false,
    "description": "建造年代：为新石器时代遗址。；所在地区：位于浙江省杭州市萧山区。；建筑特点：遗址包含木构、水边活动面与相关生活遗存，反映早期聚落在湿地环境中的建筑与交通适应，桥梁或跨水设施迹象展示史前木构工程能力。；历史文化价值：跨湖桥遗址是研究长江下游早期文明、湿地聚落生业和史前木构技术的重要遗址。",
    "features": [],
    "imageUrl": "",
    "relatedWorks": [],
    "relatedPersons": []
  },
  {
    "id": "scraped_125",
    "name": "鄂王城城址",
    "type": "官府",
    "dynasty": "东周",
    "period": "先秦两汉",
    "province": "湖北",
    "city": "黄石市",
    "lat": 30.22,
    "lng": 114.754722,
    "batch": "第五批",
    "isFeatured": false,
    "description": "建造年代：为东周时期城址。；所在地区：位于湖北省黄石市。；建筑特点：城址依地势构筑，具有楚系城址防御与政治中心并存的特点，夯土城垣和内部遗迹反映区域性中心城邑的组织形态。；历史文化价值：该城址与楚文化东部展开和长江中游地方政权格局密切相关，是研究东周时期鄂东南城邑体系的重要遗存。",
    "features": [],
    "imageUrl": "",
    "relatedWorks": [],
    "relatedPersons": []
  },
  {
    "id": "scraped_126",
    "name": "绍兴鲁迅故居",
    "type": "民居",
    "dynasty": "1881－1898年",
    "period": "",
    "province": "浙江",
    "city": "绍兴市",
    "lat": 29.991667,
    "lng": 120.585278,
    "batch": "第三批",
    "isFeatured": false,
    "description": "建造年代：为1881年至1898年使用的晚清民居。；所在地区：位于浙江省绍兴市越城区。；建筑特点：故居为绍兴传统台门式住宅，前后多进，院落与天井相连，木构架、粉墙黛瓦和河埠环境共同体现江南士绅家庭居住格局。；历史文化价值：故居保存鲁迅少年时期生活环境，也反映清末绍兴城市社会与传统台门住宅文化，对近代文学史和地方民居研究均有价值。",
    "features": [],
    "imageUrl": "",
    "relatedWorks": [],
    "relatedPersons": []
  },
  {
    "id": "scraped_127",
    "name": "秋瑾故居",
    "type": "民居",
    "dynasty": "1907年",
    "period": "",
    "province": "浙江",
    "city": "绍兴市",
    "lat": 29.987778,
    "lng": 120.579722,
    "batch": "第三批",
    "isFeatured": false,
    "description": "建造年代：现存建筑与1907年前后相关。；所在地区：位于浙江省绍兴市。；建筑特点：住宅为江南传统民居，院落布局简洁，厅房层次分明，体现绍兴地区近代家庭住宅的基本面貌。；历史文化价值：故居与秋瑾革命活动和近代女性解放思想传播密切相关，对研究近代革命史和绍兴地方社会文化具有意义。",
    "features": [],
    "imageUrl": "",
    "relatedWorks": [],
    "relatedPersons": []
  },
  {
    "id": "scraped_130",
    "name": "屈斗宫德化窑遗址（包括浔中、盖德",
    "type": "皇宫",
    "dynasty": "宋至明",
    "period": "宋辽金元",
    "province": "福建",
    "city": "泉州市",
    "lat": 25.4875,
    "lng": 118.255,
    "batch": "第三批",
    "isFeatured": false,
    "description": "建造年代：始于宋代，延续至明代。；所在地区：位于福建省泉州市德化县。；建筑特点：遗址由窑炉、作坊、堆积层及相关建筑设施构成，反映德化白瓷生产的空间组织和窑业聚落形态，体现山地窑场依资源分布而形成的生产建筑格局。；历史文化价值：该遗址是研究德化窑陶瓷生产技术、外销贸易和地方手工业聚落发展的重要实物基础，对中国陶瓷史意义重大。",
    "features": [],
    "imageUrl": "",
    "relatedWorks": [],
    "relatedPersons": []
  },
  {
    "id": "scraped_131",
    "name": "汉庄城址",
    "type": "官府",
    "dynasty": "汉",
    "period": "先秦两汉",
    "province": "云南",
    "city": "保山市",
    "lat": 25.0685,
    "lng": 99.1815,
    "batch": "第五批",
    "isFeatured": false,
    "description": "建造年代：为汉代城址。；所在地区：位于云南省保山市。；建筑特点：城址体现滇西地区汉代郡县城邑形态，夯土城垣和内部遗存反映边地城镇在军事防守、行政管理和交通控制方面的综合功能。；历史文化价值：该城址对研究汉代西南边疆治理、滇西交通和郡县制度推行具有重要意义。",
    "features": [],
    "imageUrl": "",
    "relatedWorks": [],
    "relatedPersons": []
  },
  {
    "id": "scraped_132",
    "name": "洛阳桥",
    "type": "桥梁",
    "dynasty": "宋至明",
    "period": "宋辽金元",
    "province": "福建",
    "city": "泉州市",
    "lat": 24.9514,
    "lng": 118.6742,
    "batch": "第三批",
    "isFeatured": false,
    "description": "建造年代：始建于宋代，后历经元明时期修缮。；所在地区：位于福建省泉州市惠安县、洛江区交界。；建筑特点：桥梁横跨海湾入海口，采用筏形基础、石梁桥面和护岸工程相结合的技术，桥长而稳，兼顾潮汐、水流和通行需求，是沿海大型石梁桥的杰出代表。；历史文化价值：洛阳桥见证宋代泉州海港交通与工程技术发展，对研究海湾桥梁建造、海上贸易和地方公益修桥传统具有重要意义。",
    "features": [],
    "imageUrl": "",
    "relatedWorks": [],
    "relatedPersons": []
  },
  {
    "id": "scraped_133",
    "name": "泉州天后宫",
    "type": "皇宫",
    "dynasty": "清",
    "period": "明清",
    "province": "福建",
    "city": "泉州市",
    "lat": 24.895,
    "lng": 118.589444,
    "batch": "第三批",
    "isFeatured": false,
    "description": "建造年代：现存建筑主要为清代。；所在地区：位于福建省泉州市鲤城区。；建筑特点：宫庙沿中轴线布置山门、戏台、拜亭和正殿，红砖白石、燕尾脊及木石雕工艺鲜明，作为妈祖庙兼具祭祀、商旅朝拜和城市公共活动功能。；历史文化价值：泉州天后宫与海上贸易、航海信仰和海外交通史密切相关，是研究妈祖信仰传播、泉州港繁荣和海洋文化的重要遗存。",
    "features": [],
    "imageUrl": "",
    "relatedWorks": [],
    "relatedPersons": []
  },
  {
    "id": "scraped_134",
    "name": "崇武城墙",
    "type": "官府",
    "dynasty": "明",
    "period": "明清",
    "province": "福建",
    "city": "泉州市",
    "lat": 24.8811,
    "lng": 118.9277,
    "batch": "第三批",
    "isFeatured": false,
    "description": "建造年代：建于明代。；所在地区：位于福建省泉州市惠安县崇武镇。；建筑特点：城墙面海而建，石砌城垣、炮台、敌台和城门体系较完整，具有鲜明海防城堡特征，是东南沿海为应对倭患而营建的典型防御设施。；历史文化价值：崇武城墙是研究明代海防制度、沿海军事工程和福建海疆治理的重要实物，对理解东南海防格局意义突出。",
    "features": [],
    "imageUrl": "",
    "relatedWorks": [],
    "relatedPersons": []
  },
  {
    "id": "scraped_137",
    "name": "孚王府",
    "type": "皇宫",
    "dynasty": "清",
    "period": "明清",
    "province": "北京",
    "city": "北京市",
    "lat": 39.924722,
    "lng": 116.424722,
    "batch": "第五批",
    "isFeatured": false,
    "description": "建造年代：建于清代。；所在地区：位于北京市。；建筑特点：王府建筑沿轴线设置大门、前殿、正殿和后寝院落，礼制等级明确，建筑形式遵循清代宗室府邸制度，同时体现北京王府建筑规制。；历史文化价值：孚王府是研究清代王府制度、宗室生活和北京城市贵族居住空间的重要实例。",
    "features": [],
    "imageUrl": "",
    "relatedWorks": [],
    "relatedPersons": []
  },
  {
    "id": "scraped_138",
    "name": "归德府城墙",
    "type": "官府",
    "dynasty": "明",
    "period": "明清",
    "province": "河南",
    "city": "商丘市",
    "lat": 34.417222,
    "lng": 115.630278,
    "batch": "第四批",
    "isFeatured": false,
    "description": "建造年代：建于明代。；所在地区：位于河南省商丘市。；建筑特点：城墙平面方整，砖砌城垣与城门、护城河等构成完整城防体系，反映豫东平原府城在防御与城市管理中的建筑特征。；历史文化价值：归德府城墙对研究明代中原府城形制、黄淮地区城市防御和商丘历史发展具有重要意义。",
    "features": [],
    "imageUrl": "",
    "relatedWorks": [],
    "relatedPersons": []
  },
  {
    "id": "scraped_139",
    "name": "小商桥",
    "type": "桥梁",
    "dynasty": "宋",
    "period": "宋辽金元",
    "province": "河南",
    "city": "漯河市",
    "lat": 33.721,
    "lng": 113.966,
    "batch": "第五批",
    "isFeatured": false,
    "description": "建造年代：建于宋代。；所在地区：位于河南省漯河市临颍县。；建筑特点：桥梁为单孔石拱桥，桥体比例秀健，石券与栏板构造精细，兼具交通功能与纪念性，是中原地区宋代石桥的代表之一。；历史文化价值：小商桥不仅展示宋代石桥工程水平，也与桥畔岳飞纪念文化相联系，对研究桥梁史和地方历史记忆具有双重价值。",
    "features": [],
    "imageUrl": "",
    "relatedWorks": [],
    "relatedPersons": []
  },
  {
    "id": "scraped_140",
    "name": "内乡县衙",
    "type": "官府",
    "dynasty": "清",
    "period": "明清",
    "province": "河南",
    "city": "南阳市",
    "lat": 33.044722,
    "lng": 111.848889,
    "batch": "第四批",
    "isFeatured": false,
    "description": "建造年代：现存建筑主要为清代。；所在地区：位于河南省南阳市内乡县。；建筑特点：县衙中轴分明，照壁、大门、仪门、大堂、二堂、三堂及附属房舍层层展开，前朝后寝、左辅右弼格局完整，是地方官署礼制与行政功能结合的典型。；历史文化价值：内乡县衙是中国保存较完整的县级官署建筑实例，对研究清代基层行政制度、衙署空间秩序和地方治理具有极高价值。",
    "features": [],
    "imageUrl": "",
    "relatedWorks": [],
    "relatedPersons": []
  },
  {
    "id": "scraped_141",
    "name": "南阳知府衙门",
    "type": "官府",
    "dynasty": "清",
    "period": "明清",
    "province": "河南",
    "city": "南阳市",
    "lat": 33.001111,
    "lng": 112.531111,
    "batch": "第五批",
    "isFeatured": false,
    "description": "建造年代：现存建筑主要为清代。；所在地区：位于河南省南阳市。；建筑特点：府衙布局规整，强调中轴礼序和前朝后寝格局，大堂、二堂、内宅及附属用房分工明确，反映府级官署建筑规模与等级。；历史文化价值：该衙门是研究清代府级行政机构运行、官署制度和中原地区府城空间组织的重要实物资料。",
    "features": [],
    "imageUrl": "",
    "relatedWorks": [],
    "relatedPersons": []
  },
  {
    "id": "scraped_142",
    "name": "松潘古城墙",
    "type": "官府",
    "dynasty": "明",
    "period": "明清",
    "province": "四川",
    "city": "阿坝藏族羌族自治州",
    "lat": 32.750278,
    "lng": 103.820278,
    "batch": "第五批",
    "isFeatured": false,
    "description": "建造年代：建于明代。；所在地区：位于四川省阿坝藏族羌族自治州松潘县。；建筑特点：城墙以石砌为主，依山势组织防御，城门、城楼和墙体适应高原山地环境，体现西南边地军事城镇重视险要控制和长期驻防的特点。；历史文化价值：松潘古城墙是明代经营川西北、控制茶马古道和维护边疆秩序的重要遗存，对研究西南边防和民族地区城防建筑具有重要意义。",
    "features": [],
    "imageUrl": "",
    "relatedWorks": [],
    "relatedPersons": []
  },
  {
    "id": "scraped_143",
    "name": "南岩宫",
    "type": "皇宫",
    "dynasty": "元、明",
    "period": "宋辽金元",
    "province": "湖北",
    "city": "十堰市",
    "lat": 32.421111,
    "lng": 111.017222,
    "batch": "第四批",
    "isFeatured": false,
    "description": "建造年代：始建于元代，明代大规模扩建。；所在地区：位于湖北省十堰市武当山。；建筑特点：宫观依绝壁危岩和山道布局，殿阁、石构平台与自然山体结合极为紧密，构成武当山建筑中最具山地险峻特色的景观节点。；历史文化价值：南岩宫体现武当山道教建筑将宗教朝圣路线、山水景观和宫观营造融为一体的能力，对研究山地宗教建筑与明代皇家崇道具有重要意义。",
    "features": [],
    "imageUrl": "",
    "relatedWorks": [],
    "relatedPersons": []
  },
  {
    "id": "scraped_144",
    "name": "寿县古城墙",
    "type": "官府",
    "dynasty": "宋至清",
    "period": "宋辽金元",
    "province": "安徽",
    "city": "六安市",
    "lat": 32.578333,
    "lng": 116.776944,
    "batch": "第五批",
    "isFeatured": false,
    "description": "建造年代：始建于宋代，明清时期续有修筑。；所在地区：位于安徽省六安市寿县。；建筑特点：城墙平面轮廓完整，城门、瓮城和城体结构保存较好，兼具防御、防洪和城市边界功能，是江淮地区古城墙保存较完整的实例。；历史文化价值：寿县古城墙对研究江淮地区州县城市形态、城防工程和古寿春历史延续具有重要意义。",
    "features": [],
    "imageUrl": "",
    "relatedWorks": [],
    "relatedPersons": []
  },
  {
    "id": "scraped_145",
    "name": "洪秀全故居",
    "type": "民居",
    "dynasty": "清代中期",
    "period": "明清",
    "province": "广东",
    "city": "广州市",
    "lat": 23.417222,
    "lng": 113.172778,
    "batch": "第三批",
    "isFeatured": false,
    "description": "建造年代：现存建筑形成于清代中期。；所在地区：位于广东省广州市花都区。；建筑特点：故居为岭南乡村民居，砖木结构与院落空间简朴实用，体现珠三角北缘村落住宅的地方特征。；历史文化价值：该故居与太平天国领袖洪秀全早年生活密切相关，是研究太平天国历史背景、岭南乡村社会与近代革命思想萌动的重要场所。",
    "features": [],
    "imageUrl": "",
    "relatedWorks": [],
    "relatedPersons": []
  },
  {
    "id": "scraped_146",
    "name": "北京鼓楼、钟楼",
    "type": "官府",
    "dynasty": "明、清",
    "period": "明清",
    "province": "北京",
    "city": "北京市",
    "lat": 39.942778,
    "lng": 116.403056,
    "batch": "第四批",
    "isFeatured": false,
    "description": "建造年代：始建于明代，清代续有修缮。；所在地区：位于北京市东城区。；建筑特点：两楼前后布置，鼓楼体量厚重，钟楼高耸挺拔，作为元明清都城报时建筑共同组织城市时间秩序与空间标识，木构楼阁形式庄重。；历史文化价值：鼓楼、钟楼是北京都城公共建筑体系的重要组成部分，对研究古代都城报时制度、城市空间节点和楼阁建筑发展具有重要价值。",
    "features": [],
    "imageUrl": "",
    "relatedWorks": [],
    "relatedPersons": []
  },
  {
    "id": "scraped_147",
    "name": "御窑厂窑址",
    "type": "皇宫",
    "dynasty": "明至清",
    "period": "明清",
    "province": "江西",
    "city": "景德镇市",
    "lat": 29.296389,
    "lng": 117.206389,
    "batch": "第六批",
    "isFeatured": false,
    "description": "建造年代：始建于明代，延续至清代。；所在地区：位于江西省景德镇市珠山区。；建筑特点：遗址由窑炉、作坊、仓储和管理设施组成，体现官窑生产分工明确、工序复杂、依水依市的手工业空间组织方式。；历史文化价值：御窑厂窑址是研究明清官窑制度、瓷器生产技术和景德镇城市形成的重要核心遗址，在中国陶瓷史上地位极其重要。",
    "features": [],
    "imageUrl": "",
    "relatedWorks": [],
    "relatedPersons": []
  },
  {
    "id": "scraped_148",
    "name": "太平天国侍王府",
    "type": "皇宫",
    "dynasty": "1861年",
    "period": "",
    "province": "浙江",
    "city": "金华市",
    "lat": 29.101944,
    "lng": 119.664722,
    "batch": "第三批",
    "isFeatured": false,
    "description": "建造年代：建于1861年。；所在地区：位于浙江省金华市。；建筑特点：府邸利用传统大型民居或官宅格局改建，形成以厅堂和多进院落为核心的复合空间，兼具军事首领居住与处理政务功能。；历史文化价值：侍王府与太平天国晚期在浙中地区的军事政治活动密切相关，是研究太平天国地方政权空间和近代战争背景下建筑利用的重要遗存。",
    "features": [],
    "imageUrl": "",
    "relatedWorks": [],
    "relatedPersons": []
  },
  {
    "id": "scraped_149",
    "name": "拉加里王宫遗址",
    "type": "皇宫",
    "dynasty": "13世纪至18世纪",
    "period": "",
    "province": "西藏",
    "city": "山南市",
    "lat": 29.0628,
    "lng": 92.2037,
    "batch": "第五批",
    "isFeatured": false,
    "description": "建造年代：形成于13世纪至18世纪。；所在地区：位于西藏自治区山南市。；建筑特点：王宫依山地高差布置，以厚墙石木结构和层叠院落构成，兼具王室居住、政务和宗教功能，体现西藏地方贵族建筑在高原环境中的营造特征。；历史文化价值：拉加里王宫遗址是研究西藏地方政权、贵族制度和高原宫殿建筑的重要实物，对认识西藏地方历史与建筑文化具有重要意义。",
    "features": [],
    "imageUrl": "",
    "relatedWorks": [],
    "relatedPersons": []
  },
  {
    "id": "scraped_152",
    "name": "牛头城址",
    "type": "官府",
    "dynasty": "商至周",
    "period": "先秦两汉",
    "province": "江西",
    "city": "吉安市",
    "lat": 27.9339,
    "lng": 115.4509,
    "batch": "第六批",
    "isFeatured": false,
    "description": "建造年代：始建于商代，延续至周代。；所在地区：位于江西省吉安市。；建筑特点：遗址为早期夯土城址，具备城垣和聚落遗迹，反映赣中地区早期政治中心或大型聚落在防御与管理方面的特征。；历史文化价值：牛头城址是研究赣江流域先秦早期城址、区域文明发展和中原文化南传的重要材料。",
    "features": [],
    "imageUrl": "",
    "relatedWorks": [],
    "relatedPersons": []
  },
  {
    "id": "scraped_154",
    "name": "北苑御焙遗址",
    "type": "皇宫",
    "dynasty": "宋",
    "period": "宋辽金元",
    "province": "福建",
    "city": "南平市",
    "lat": 27.100833,
    "lng": 118.489444,
    "batch": "第六批",
    "isFeatured": false,
    "description": "建造年代：为宋代遗址。；所在地区：位于福建省南平市建瓯市。；建筑特点：遗址与贡茶生产、焙制和管理建筑相关，反映宋代皇家贡茶体系下工艺作坊与管理空间的组织方式。；历史文化价值：北苑御焙遗址对于研究宋代贡茶制度、茶业生产建筑和福建茶文化具有重要意义。",
    "features": [],
    "imageUrl": "",
    "relatedWorks": [],
    "relatedPersons": []
  },
  {
    "id": "scraped_155",
    "name": "白口城址",
    "type": "官府",
    "dynasty": "汉至南北朝",
    "period": "先秦两汉",
    "province": "江西",
    "city": "吉安市",
    "lat": 26.751,
    "lng": 114.8479,
    "batch": "第六批",
    "isFeatured": false,
    "description": "建造年代：始建于汉代，延续至南北朝。；所在地区：位于江西省吉安市。；建筑特点：城址具有多时期叠压特征，夯土城垣和内部遗迹反映赣中地区古代治所城邑的长期沿用，兼具防御与行政管理功能。；历史文化价值：该城址对研究赣江中游古代政区演变、城镇发展和南方区域治理具有重要参考价值。",
    "features": [],
    "imageUrl": "",
    "relatedWorks": [],
    "relatedPersons": []
  },
  {
    "id": "scraped_156",
    "name": "太和宫金殿",
    "type": "皇宫",
    "dynasty": "清",
    "period": "明清",
    "province": "云南",
    "city": "昆明市",
    "lat": 25.087778,
    "lng": 102.767222,
    "batch": "第二批",
    "isFeatured": false,
    "description": "建造年代：现存建筑为清代。；所在地区：位于云南省昆明市西山区。；建筑特点：金殿为铜铸仿木构建筑，殿体、斗拱、梁枋及屋面构件以金属整体铸成，工艺精细，兼具宫殿式礼制建筑与道教宫观性质，是中国古代金属建筑的杰出代表。；历史文化价值：太和宫金殿对研究清代金属铸造工艺、道教建筑和云南地方宗教文化具有重要意义。",
    "features": [],
    "imageUrl": "",
    "relatedWorks": [],
    "relatedPersons": []
  },
  {
    "id": "scraped_158",
    "name": "增冲鼓楼",
    "type": "官府",
    "dynasty": "清",
    "period": "明清",
    "province": "贵州",
    "city": "黔东南苗族侗族自治州",
    "lat": 25.923333,
    "lng": 108.691111,
    "batch": "第三批",
    "isFeatured": false,
    "description": "建造年代：建于清代。；所在地区：位于贵州省黔东南苗族侗族自治州从江县。；建筑特点：鼓楼为侗寨中心建筑，多层木构逐层收分，无钉榫卯结构精妙，兼具村寨议事、节庆和礼仪活动功能。；历史文化价值：增冲鼓楼是侗族公共建筑和木构技艺的代表，对研究民族村寨组织、传统营造与口传礼制文化具有重要意义。",
    "features": [],
    "imageUrl": "",
    "relatedWorks": [],
    "relatedPersons": []
  },
  {
    "id": "scraped_159",
    "name": "真泽二仙宫",
    "type": "皇宫",
    "dynasty": "元至清",
    "period": "宋辽金元",
    "province": "山西",
    "city": "长治市",
    "lat": 35.890833,
    "lng": 113.4175,
    "batch": "第六批",
    "isFeatured": false,
    "description": "建造年代：始建于元代，清代续有修缮。；所在地区：位于山西省长治市。；建筑特点：宫观建筑沿轴线展开，殿宇木构架保存较好，反映山西地区道教建筑在殿堂尺度、斗拱构造和地方装饰方面的特点。；历史文化价值：该宫观对研究元清时期山西道教信仰、地方宫观形制和木构建筑传承具有重要价值。",
    "features": [],
    "imageUrl": "",
    "relatedWorks": [],
    "relatedPersons": []
  },
  {
    "id": "scraped_160",
    "name": "中坪二仙宫",
    "type": "皇宫",
    "dynasty": "金至清",
    "period": "宋辽金元",
    "province": "山西",
    "city": "晋城市",
    "lat": 35.803056,
    "lng": 113.083056,
    "batch": "第六批",
    "isFeatured": false,
    "description": "建造年代：始建于金代，清代续有修缮。；所在地区：位于山西省晋城市。；建筑特点：建筑群以殿堂为核心，木构梁架和地方彩塑、壁画等构成完整礼仪空间，体现晋东南地区金元以来宫观建筑传统。；历史文化价值：中坪二仙宫是研究晋东南道教信仰、金代建筑遗存和地方宗教空间延续的重要实例。",
    "features": [],
    "imageUrl": "",
    "relatedWorks": [],
    "relatedPersons": []
  },
  {
    "id": "scraped_161",
    "name": "襄阳城墙",
    "type": "官府",
    "dynasty": "明",
    "period": "明清",
    "province": "湖北",
    "city": "襄樊市",
    "lat": 32.026111,
    "lng": 112.151389,
    "batch": "第五批",
    "isFeatured": false,
    "description": "建造年代：现存城墙主要为明代。；所在地区：位于湖北省襄阳市。；建筑特点：城墙依汉江和护城河形成水陆结合的防御体系，城门、瓮城、敌楼和墙体保存较为完整，是江汉地区大型府城防御建筑代表。；历史文化价值：襄阳城墙长期承担军事守御和城市边界功能，对研究明代城防工程、区域军事地位和襄阳城市史具有重要意义。",
    "features": [],
    "imageUrl": "",
    "relatedWorks": [],
    "relatedPersons": []
  },
  {
    "id": "scraped_162",
    "name": "襄阳王府绿影壁",
    "type": "皇宫",
    "dynasty": "明",
    "period": "明清",
    "province": "湖北",
    "city": "襄樊市",
    "lat": 32.048056,
    "lng": 112.143889,
    "batch": "第五批",
    "isFeatured": false,
    "description": "建造年代：建于明代。；所在地区：位于湖北省襄阳市。；建筑特点：影壁体量高大，以砖石结构和琉璃构件装饰为特色，既作为王府礼制空间前导，又具有遮蔽和象征功能，是大型府第附属建筑中的重要构件。；历史文化价值：绿影壁反映明代王府制度、装饰工艺和礼仪空间层次，对研究王府建筑附属设施和古代影壁艺术具有重要价值。",
    "features": [],
    "imageUrl": "",
    "relatedWorks": [],
    "relatedPersons": []
  },
  {
    "id": "scraped_163",
    "name": "徐霞客故居及晴山堂石刻",
    "type": "民居",
    "dynasty": "明",
    "period": "明清",
    "province": "江苏",
    "city": "无锡市",
    "lat": 31.710556,
    "lng": 120.323056,
    "batch": "第五批",
    "isFeatured": false,
    "description": "建造年代：故居形成于明代。；所在地区：位于江苏省无锡市江阴市。；建筑特点：故居为江南传统住宅，院落尺度适中，书斋、厅堂与居住空间结合；晴山堂石刻则体现文人题刻与园居空间的结合。；历史文化价值：该处遗存与徐霞客生平、游历文化和明代江南文人生活密切相关，对研究地理学史、旅行书写传统和江南居住文化具有意义。",
    "features": [],
    "imageUrl": "",
    "relatedWorks": [],
    "relatedPersons": []
  },
  {
    "id": "scraped_164",
    "name": "宝带桥",
    "type": "桥梁",
    "dynasty": "明",
    "period": "明清",
    "province": "江苏",
    "city": "苏州市",
    "lat": 31.268889,
    "lng": 120.650556,
    "batch": "第五批",
    "isFeatured": false,
    "description": "建造年代：现存桥体主要为明代。；所在地区：位于江苏省苏州市吴中区。；建筑特点：桥梁横跨运河支流，长桥多孔，桥身起伏如带，石拱连续排列，兼顾航运净空和陆路通行，是江南运河桥梁中造型与功能统一的代表。；历史文化价值：宝带桥反映江南水网地区桥梁工程与运河交通的紧密关系，对研究多孔石拱桥技术和苏州水乡交通史具有重要意义。",
    "features": [],
    "imageUrl": "",
    "relatedWorks": [],
    "relatedPersons": []
  },
  {
    "id": "scraped_165",
    "name": "醇亲王府",
    "type": "皇宫",
    "dynasty": "清",
    "period": "明清",
    "province": "北京",
    "city": "北京市",
    "lat": 39.944444,
    "lng": 116.384722,
    "batch": "第六批",
    "isFeatured": false,
    "description": "建造年代：建于清代。；所在地区：位于北京市。；建筑特点：府邸格局符合清代宗室王府规制，院落层级、厅堂位置和后寝区域划分明确，体现北京王府建筑礼制和居住功能的统一。；历史文化价值：醇亲王府与晚清皇室政治和宗室生活密切相关，是研究清代王府制度和北京贵族居住文化的重要实例。",
    "features": [],
    "imageUrl": "",
    "relatedWorks": [],
    "relatedPersons": []
  },
  {
    "id": "scraped_166",
    "name": "安徽会馆",
    "type": "民居",
    "dynasty": "清",
    "period": "明清",
    "province": "北京",
    "city": "北京市",
    "lat": 39.893333,
    "lng": 116.383611,
    "batch": "第六批",
    "isFeatured": false,
    "description": "建造年代：建于清代。；所在地区：位于北京市。；建筑特点：会馆建筑以山门、戏楼、正殿和院落为主要单元，适应在京同乡集会、祭祀和居停需求，装饰体现徽商会馆讲究门面和公共性的特点。；历史文化价值：安徽会馆反映清代京师同乡组织、会馆制度和外省商绅在京活动，对研究城市社会和地域群体文化具有意义。",
    "features": [],
    "imageUrl": "",
    "relatedWorks": [],
    "relatedPersons": []
  },
  {
    "id": "scraped_167",
    "name": "永济桥",
    "type": "桥梁",
    "dynasty": "明至清",
    "period": "明清",
    "province": "河北",
    "city": "保定市",
    "lat": 39.471944,
    "lng": 115.960833,
    "batch": "第六批",
    "isFeatured": false,
    "description": "建造年代：始建于明代，清代续有修葺。；所在地区：位于河北省保定市。；建筑特点：桥梁为北方传统石桥，桥体稳健，桥墩、桥券与桥面构造体现平原河流环境下的工程处理方式，是区域交通的重要节点。；历史文化价值：永济桥对研究华北地区古桥营造和地方交通发展具有一定价值。",
    "features": [],
    "imageUrl": "",
    "relatedWorks": [],
    "relatedPersons": []
  },
  {
    "id": "scraped_168",
    "name": "府州城",
    "type": "官府",
    "dynasty": "五代－清",
    "period": "魏晋隋唐",
    "province": "陕西",
    "city": "榆林市",
    "lat": 39.0281,
    "lng": 111.0672,
    "batch": "第四批",
    "isFeatured": false,
    "description": "建造年代：始建于五代，延续至清代。；所在地区：位于陕西省榆林市府谷县。；建筑特点：城址依黄河边地险要位置而建，城垣与山地高差结合紧密，兼具军事防御和地方治所功能，是典型的陕北边城。；历史文化价值：府州城长期处于北方边防前沿，对研究宋辽夏金元明清多时期边地城镇、黄河防务和陕北历史地理具有重要意义。",
    "features": [],
    "imageUrl": "",
    "relatedWorks": [],
    "relatedPersons": []
  },
  {
    "id": "scraped_169",
    "name": "天津广东会馆",
    "type": "民居",
    "dynasty": "清",
    "period": "明清",
    "province": "天津",
    "city": "天津市",
    "lat": 39.141389,
    "lng": 117.181667,
    "batch": "第五批",
    "isFeatured": false,
    "description": "建造年代：建于清代。；所在地区：位于天津市。；建筑特点：会馆建筑组合完整，戏楼、殿堂和院落兼具祭祀、聚会和演出功能，装饰工艺较为精细，体现近代天津商贸城市中同乡会馆的公共性。；历史文化价值：广东会馆见证天津近代商业发展和南方商人北上活动，对研究会馆文化、地域移民与近代城市社会具有重要意义。",
    "features": [],
    "imageUrl": "",
    "relatedWorks": [],
    "relatedPersons": []
  },
  {
    "id": "scraped_170",
    "name": "石家大院",
    "type": "民居",
    "dynasty": "清",
    "period": "明清",
    "province": "天津",
    "city": "天津市",
    "lat": 39.134444,
    "lng": 117.010556,
    "batch": "第六批",
    "isFeatured": false,
    "description": "建造年代：建于清代。；所在地区：位于天津市西青区杨柳青镇。；建筑特点：宅院规模较大，多进四合院层层组合，砖木细部和砖雕装饰精美，体现华北商绅大宅兼顾礼序、居住和经营需求的特点。；历史文化价值：石家大院是研究天津近郊商绅宅第、杨柳青地区民居和地方社会生活的重要实例。",
    "features": [],
    "imageUrl": "",
    "relatedWorks": [],
    "relatedPersons": []
  },
  {
    "id": "scraped_171",
    "name": "腰山王氏庄园",
    "type": "民居",
    "dynasty": "清",
    "period": "明清",
    "province": "河北",
    "city": "保定市",
    "lat": 38.9025,
    "lng": 115.200278,
    "batch": "第五批",
    "isFeatured": false,
    "description": "建造年代：建于清代。；所在地区：位于河北省保定市顺平县。；建筑特点：庄园以大院落群组合而成，门楼、厅堂、内宅和附属生产空间分工清楚，兼具北方庄园宅院的等级性与防御性。；历史文化价值：该庄园反映清代华北地主经济、家族生活和乡村社会结构，对研究北方庄园建筑具有重要价值。",
    "features": [],
    "imageUrl": "",
    "relatedWorks": [],
    "relatedPersons": []
  },
  {
    "id": "scraped_172",
    "name": "八卦营城址",
    "type": "官府",
    "dynasty": "汉至晋",
    "period": "先秦两汉",
    "province": "甘肃",
    "city": "张掖市",
    "lat": 38.341944,
    "lng": 100.971667,
    "batch": "第六批",
    "isFeatured": false,
    "description": "建造年代：始建于汉代，延续至晋代。；所在地区：位于甘肃省张掖市。；建筑特点：城址位于河西走廊交通线上，夯土城垣和内部遗存体现边塞城镇兼具军防、屯田和交通中转的功能。；历史文化价值：八卦营城址对研究汉晋时期河西走廊城镇体系、丝路交通和边地经营具有重要意义。",
    "features": [],
    "imageUrl": "",
    "relatedWorks": [],
    "relatedPersons": []
  },
  {
    "id": "scraped_173",
    "name": "伍仁桥",
    "type": "桥梁",
    "dynasty": "明",
    "period": "明清",
    "province": "河北",
    "city": "保定市",
    "lat": 38.301944,
    "lng": 115.332778,
    "batch": "第六批",
    "isFeatured": false,
    "description": "建造年代：建于明代。；所在地区：位于河北省保定市。；建筑特点：桥梁采用石构形式，尺度适中，构造稳健，适应华北平原河道和乡间道路交通需要。；历史文化价值：伍仁桥是研究地方桥梁建设与区域交通网络的实物例证。",
    "features": [],
    "imageUrl": "",
    "relatedWorks": [],
    "relatedPersons": []
  },
  {
    "id": "scraped_174",
    "name": "单桥",
    "type": "桥梁",
    "dynasty": "明",
    "period": "明清",
    "province": "河北",
    "city": "沧州市",
    "lat": 38.140556,
    "lng": 116.138611,
    "batch": "第六批",
    "isFeatured": false,
    "description": "建造年代：建于明代。；所在地区：位于河北省沧州市。；建筑特点：桥体结构简洁实用，体现平原地区石桥或砖石桥在过水、通行和耐久性方面的传统经验。；历史文化价值：单桥对研究冀东南地区古桥营造和地方交通环境具有一定价值。",
    "features": [],
    "imageUrl": "",
    "relatedWorks": [],
    "relatedPersons": []
  },
  {
    "id": "scraped_175",
    "name": "张家场城址",
    "type": "官府",
    "dynasty": "汉",
    "period": "先秦两汉",
    "province": "宁夏",
    "city": "吴忠市",
    "lat": 37.430556,
    "lng": 106.864722,
    "batch": "第六批",
    "isFeatured": false,
    "description": "建造年代：为汉代城址。；所在地区：位于宁夏回族自治区吴忠市。；建筑特点：城址以夯土城垣和内部遗存为主，反映宁夏平原地带汉代城邑重视屯守、防御和区域管理的特点。；历史文化价值：该城址是研究汉代西北边疆治理、黄河上游城镇分布和宁夏地区开发的重要材料。",
    "features": [],
    "imageUrl": "",
    "relatedWorks": [],
    "relatedPersons": []
  },
  {
    "id": "scraped_176",
    "name": "丁氏故宅",
    "type": "民居",
    "dynasty": "清",
    "period": "明清",
    "province": "山东",
    "city": "烟台市",
    "lat": 37.651389,
    "lng": 120.528611,
    "batch": "第四批",
    "isFeatured": false,
    "description": "建造年代：建于清代。；所在地区：位于山东省烟台市。；建筑特点：住宅为胶东地区传统院落民居，注重封闭院墙、厅堂与内宅分区，装饰较为朴实，体现地方家族住宅营造特征。；历史文化价值：丁氏故宅对研究胶东民居、地方家族生活和近世乡绅住宅文化具有意义。",
    "features": [],
    "imageUrl": "",
    "relatedWorks": [],
    "relatedPersons": []
  },
  {
    "id": "scraped_177",
    "name": "永泰城址",
    "type": "官府",
    "dynasty": "明",
    "period": "明清",
    "province": "甘肃",
    "city": "白银市",
    "lat": 37.144444,
    "lng": 103.846944,
    "batch": "第六批",
    "isFeatured": false,
    "description": "建造年代：建于明代。；所在地区：位于甘肃省白银市景泰县。；建筑特点：城址平面规整，夯土或砖包城垣与城门、角楼等防御设施结合，体现西北边城在荒漠和山前地带的军事防御布局。；历史文化价值：永泰城址对研究明代西北边防、军屯制度和丝路沿线城堡建设具有重要意义。",
    "features": [],
    "imageUrl": "",
    "relatedWorks": [],
    "relatedPersons": []
  },
  {
    "id": "scraped_178",
    "name": "魏氏庄园",
    "type": "民居",
    "dynasty": "清",
    "period": "明清",
    "province": "山东",
    "city": "滨州市",
    "lat": 37.291111,
    "lng": 117.753056,
    "batch": "第四批",
    "isFeatured": false,
    "description": "建造年代：建于清代。；所在地区：位于山东省滨州市惠民县。；建筑特点：庄园院落封闭，门楼、厅堂和宅院分区明确，兼具居住、防御与经营管理功能，是鲁北庄园式住宅的代表。；历史文化价值：魏氏庄园反映清代黄河下游地区地主经济、家族制度和北方庄园建筑形态，对研究地方社会史具有重要价值。",
    "features": [],
    "imageUrl": "",
    "relatedWorks": [],
    "relatedPersons": []
  },
  {
    "id": "scraped_180",
    "name": "李家崖城址",
    "type": "官府",
    "dynasty": "商至周",
    "period": "先秦两汉",
    "province": "山西",
    "city": "榆林市",
    "lat": 37.088611,
    "lng": 110.124167,
    "batch": "第六批",
    "isFeatured": false,
    "description": "建造年代：始建于商代，延续至周代。；所在地区：位于陕西省榆林市。；建筑特点：遗址为早期夯土城址，具备城垣和聚落遗存，反映北方黄土高原地带早期城邑在防御和聚落中心功能上的基本特征。；历史文化价值：李家崖城址对研究商周时期陕北地区文化面貌、早期城址分布和区域交流具有重要意义。",
    "features": [],
    "imageUrl": "",
    "relatedWorks": [],
    "relatedPersons": []
  },
  {
    "id": "scraped_181",
    "name": "鲁土司衙门旧址",
    "type": "官府",
    "dynasty": "明、清",
    "period": "明清",
    "province": "甘肃",
    "city": "兰州市",
    "lat": 36.588611,
    "lng": 102.838611,
    "batch": "第四批",
    "isFeatured": false,
    "description": "建造年代：形成于明清时期。；所在地区：位于甘肃省兰州市。；建筑特点：建筑兼具衙署与宅第功能，院落层级清晰，适应土司政务、居住和礼仪活动，是西北土司建筑的代表性实例。；历史文化价值：该旧址是研究明清土司制度、民族地区地方治理和西北地区官署宅第建筑的重要实物。",
    "features": [],
    "imageUrl": "",
    "relatedWorks": [],
    "relatedPersons": []
  },
  {
    "id": "scraped_182",
    "name": "弘济桥",
    "type": "桥梁",
    "dynasty": "明",
    "period": "明清",
    "province": "河北",
    "city": "邯郸市",
    "lat": 36.704167,
    "lng": 114.764722,
    "batch": "第六批",
    "isFeatured": false,
    "description": "建造年代：建于明代。；所在地区：位于河北省邯郸市。；建筑特点：桥体采用石构拱桥形式，结构稳健，适应平原河流跨越需求，体现明代桥梁施工技术的成熟。；历史文化价值：弘济桥是研究冀南地区古桥分布和交通发展的实物例证。",
    "features": [],
    "imageUrl": "",
    "relatedWorks": [],
    "relatedPersons": []
  },
  {
    "id": "scraped_183",
    "name": "娲皇宫及石刻",
    "type": "皇宫",
    "dynasty": "北齐、明、清",
    "period": "明清",
    "province": "河北",
    "city": "邯郸市",
    "lat": 36.641111,
    "lng": 113.616944,
    "batch": "第四批",
    "isFeatured": false,
    "description": "建造年代：始建于北齐，明清时期续有修建。；所在地区：位于河北省邯郸市涉县。；建筑特点：建筑群依山崖而建，宫观、楼阁、栈道与石刻摩崖相结合，充分利用山地地形营造祭祀女娲的宗教空间，具有较强景观性和朝圣性。；历史文化价值：娲皇宫是研究女娲信仰、北方山地宗教建筑和摩崖石刻艺术的重要遗存，对民间信仰史与地方文化传统具有重要意义。",
    "features": [],
    "imageUrl": "",
    "relatedWorks": [],
    "relatedPersons": []
  },
  {
    "id": "scraped_184",
    "name": "霍州州署大堂",
    "type": "官府",
    "dynasty": "元",
    "period": "宋辽金元",
    "province": "山西",
    "city": "长治市",
    "lat": 36.5725,
    "lng": 111.718333,
    "batch": "第四批",
    "isFeatured": false,
    "description": "建造年代：为元代建筑。；所在地区：位于山西省霍州市。；建筑特点：大堂体量开阔，木构架雄健，作为州署核心建筑，承担审案、办公和仪典功能，体现元代官署建筑重视庄重尺度和实用空间的特点。；历史文化价值：该大堂是研究元代官署建筑形制、地方行政空间和山西木构建筑传统的重要实例。",
    "features": [],
    "imageUrl": "",
    "relatedWorks": [],
    "relatedPersons": []
  },
  {
    "id": "scraped_185",
    "name": "临晋县衙",
    "type": "官府",
    "dynasty": "元至近代",
    "period": "宋辽金元",
    "province": "山西",
    "city": "运城市",
    "lat": 35.094722,
    "lng": 110.553889,
    "batch": "第五批",
    "isFeatured": false,
    "description": "建造年代：始建于元代，延续至近代。；所在地区：位于山西省运城市临猗县。；建筑特点：县衙布局完整，前朝后寝格局清晰，多时期建筑叠加反映衙署长期使用过程，是基层行政官署建筑保存较好的实例。；历史文化价值：临晋县衙对研究元以来县级治理制度、官署空间组织和地方社会管理具有重要价值。",
    "features": [],
    "imageUrl": "",
    "relatedWorks": [],
    "relatedPersons": []
  },
  {
    "id": "scraped_186",
    "name": "荆州城墙",
    "type": "官府",
    "dynasty": "明、清",
    "period": "明清",
    "province": "湖北",
    "city": "荆州市",
    "lat": 30.348056,
    "lng": 112.215556,
    "batch": "第四批",
    "isFeatured": false,
    "description": "建造年代：现存城墙主要为明代，清代续有修葺。；所在地区：位于湖北省荆州市荆州区。；建筑特点：城墙依旧城基础修筑，砖城高厚，城门、瓮城、护城河和马面体系较完整，兼有平原水网城市的防御特点。；历史文化价值：荆州城墙见证江汉平原军事重镇和州府城市的发展，对研究明清城防工程和荆州历史地位具有重要意义。",
    "features": [],
    "imageUrl": "",
    "relatedWorks": [],
    "relatedPersons": []
  },
  {
    "id": "scraped_187",
    "name": "程氏三宅",
    "type": "民居",
    "dynasty": "明",
    "period": "明清",
    "province": "安徽",
    "city": "黄山市",
    "lat": 29.708889,
    "lng": 118.318611,
    "batch": "第五批",
    "isFeatured": false,
    "description": "建造年代：建于明代。；所在地区：位于安徽省黄山市。；建筑特点：三组宅院体现典型徽派民居格局，高墙封闭，天井采光，厅堂与居住空间层次分明，木雕砖雕和马头墙富有地方特色。；历史文化价值：程氏三宅是研究明代徽州民居、宗族社会和徽派建筑艺术的重要实例。",
    "features": [],
    "imageUrl": "",
    "relatedWorks": [],
    "relatedPersons": []
  },
  {
    "id": "scraped_189",
    "name": "徐向前故居",
    "type": "民居",
    "dynasty": "清",
    "period": "明清",
    "province": "山西",
    "city": "忻州市",
    "lat": 38.63,
    "lng": 113.169167,
    "batch": "第六批",
    "isFeatured": false,
    "description": "建造年代：为清代民居。；所在地区：位于山西省忻州市五台县。；建筑特点：建筑为晋北传统民居，院落简洁，砖木结构适应北方寒冷环境，反映地方乡村住宅的朴实特征。；历史文化价值：故居与徐向前年少成长经历相关，也保存晋北地区传统居住环境，对近代人物史和地方民居研究具有意义。",
    "features": [],
    "imageUrl": "",
    "relatedWorks": [],
    "relatedPersons": []
  },
  {
    "id": "scraped_191",
    "name": "永昌钟鼓楼",
    "type": "官府",
    "dynasty": "明",
    "period": "明清",
    "province": "甘肃",
    "city": "金昌市",
    "lat": 38.2461,
    "lng": 101.9693,
    "batch": "第六批",
    "isFeatured": false,
    "description": "建造年代：建于明代。；所在地区：位于甘肃省金昌市永昌县。；建筑特点：钟鼓楼作为城内公共建筑，楼阁式木构高踞台基，兼具报时、瞭望和城市地标功能，反映西北城镇公共建筑形制。；历史文化价值：永昌钟鼓楼对研究河西走廊城镇空间、公共时间秩序和楼阁建筑具有重要价值。",
    "features": [],
    "imageUrl": "",
    "relatedWorks": [],
    "relatedPersons": []
  },
  {
    "id": "scraped_192",
    "name": "董府",
    "type": "官府",
    "dynasty": "清",
    "period": "明清",
    "province": "宁夏",
    "city": "吴忠市",
    "lat": 37.923056,
    "lng": 106.085,
    "batch": "第六批",
    "isFeatured": false,
    "description": "建造年代：建于清代。；所在地区：位于宁夏回族自治区吴忠市。；建筑特点：府第院落层级分明，兼具北方大宅和地方官绅宅第特征，厅堂、内宅与附属院落功能清楚。；历史文化价值：董府是研究宁夏地区清代宅第建筑、地方家族与区域社会生活的重要实例。",
    "features": [],
    "imageUrl": "",
    "relatedWorks": [],
    "relatedPersons": []
  },
  {
    "id": "scraped_193",
    "name": "姜氏庄园",
    "type": "民居",
    "dynasty": "清",
    "period": "明清",
    "province": "陕西",
    "city": "榆林市",
    "lat": 37.8131,
    "lng": 110.3395,
    "batch": "第六批",
    "isFeatured": false,
    "description": "建造年代：建于清代。；所在地区：位于陕西省榆林市。；建筑特点：庄园结合陕北黄土高原地形，窑洞与地面院落并用，防御性和家族聚居特征明显，体现边地庄园住宅营造方式。；历史文化价值：姜氏庄园对研究陕北民居、地主庄园和地方社会结构具有重要价值。",
    "features": [],
    "imageUrl": "",
    "relatedWorks": [],
    "relatedPersons": []
  },
  {
    "id": "scraped_194",
    "name": "烟台福建会馆",
    "type": "民居",
    "dynasty": "清",
    "period": "明清",
    "province": "山东",
    "city": "烟台市",
    "lat": 37.538333,
    "lng": 121.396944,
    "batch": "第四批",
    "isFeatured": false,
    "description": "建造年代：建于清代。；所在地区：位于山东省烟台市芝罘区。；建筑特点：会馆建筑兼具闽南庙宇和商帮会馆特色，正殿、戏台、院落组织完整，木石雕装饰精细，服务于同乡商人祭祀与聚会。；历史文化价值：该会馆反映近代烟台港口贸易与闽商北上活动，对研究商帮网络、沿海城市社会和会馆建筑传播具有重要意义。",
    "features": [],
    "imageUrl": "",
    "relatedWorks": [],
    "relatedPersons": []
  },
  {
    "id": "scraped_195",
    "name": "曹家大院",
    "type": "民居",
    "dynasty": "明至清",
    "period": "明清",
    "province": "山西",
    "city": "晋中市",
    "lat": 37.394444,
    "lng": 112.510278,
    "batch": "第六批",
    "isFeatured": false,
    "description": "建造年代：始建于明代，清代扩建。；所在地区：位于山西省晋中市太谷区。；建筑特点：宅院规模宏大，院落串联成组，门楼、厅堂和居住院分区明确，木雕砖雕讲究，体现晋商宅院重视礼序与经营生活结合的特点。；历史文化价值：曹家大院是研究晋商兴盛、山西大院建筑和地方家族文化的重要实例。",
    "features": [],
    "imageUrl": "",
    "relatedWorks": [],
    "relatedPersons": []
  },
  {
    "id": "scraped_197",
    "name": "太和岩牌楼",
    "type": "官府",
    "dynasty": "清",
    "period": "明清",
    "province": "山西",
    "city": "晋中市",
    "lat": 37.1275,
    "lng": 112.000833,
    "batch": "第六批",
    "isFeatured": false,
    "description": "建造年代：建于清代。；所在地区：位于山西省晋中市。；建筑特点：牌楼以木石结构构成，装饰雕刻丰富，作为宫观或祠庙入口标志，具有强烈礼仪和纪念性质。；历史文化价值：该牌楼对研究清代牌楼建筑、地方宗教空间门庭形象和装饰工艺具有一定价值。",
    "features": [],
    "imageUrl": "",
    "relatedWorks": [],
    "relatedPersons": []
  },
  {
    "id": "scraped_198",
    "name": "蒲松龄故宅",
    "type": "民居",
    "dynasty": "清",
    "period": "明清",
    "province": "山东",
    "city": "淄博市",
    "lat": 36.6325,
    "lng": 118.007222,
    "batch": "第六批",
    "isFeatured": false,
    "description": "建造年代：现存建筑主要为清代。；所在地区：位于山东省淄博市淄川区。；建筑特点：故宅为鲁中传统院落民居，布局简朴，书房、厅房与居住空间结合，反映地方文人家庭住宅形态。；历史文化价值：故宅与蒲松龄创作生活环境密切相关，对研究清代文学史、地方文化和山东民居具有意义。",
    "features": [],
    "imageUrl": "",
    "relatedWorks": [],
    "relatedPersons": []
  },
  {
    "id": "scraped_199",
    "name": "王家大院",
    "type": "民居",
    "dynasty": "明至清",
    "period": "明清",
    "province": "山西",
    "city": "晋中市",
    "lat": 36.896111,
    "lng": 111.874444,
    "batch": "第六批",
    "isFeatured": false,
    "description": "建造年代：始建于明代，清代持续扩建。；所在地区：位于山西省晋中市灵石县。；建筑特点：建筑群规模巨大，沿山地与台地形成多组院落，门楼、堡墙、祠堂和宅院系统完备，兼具晋商宅院的礼制秩序、防御性和精细装饰。；历史文化价值：王家大院是研究晋中民居、晋商家族经营、宗族制度和北方大型宅院营造的代表性实例。",
    "features": [],
    "imageUrl": "",
    "relatedWorks": [],
    "relatedPersons": []
  },
  {
    "id": "scraped_200",
    "name": "潞安府衙",
    "type": "官府",
    "dynasty": "明",
    "period": "明清",
    "province": "山西",
    "city": "长治市",
    "lat": 36.183056,
    "lng": 113.116111,
    "batch": "第六批",
    "isFeatured": false,
    "description": "建造年代：现存建筑主要为明代。；所在地区：位于山西省长治市。；建筑特点：府衙沿轴线布置，礼制空间层层递进，大堂、二堂及后部官宅分工明确，体现明代地方府署建筑的制度化布局。；历史文化价值：潞安府衙是研究明代地方行政管理、府级官署空间和长治历史城市格局的重要遗存。",
    "features": [],
    "imageUrl": "",
    "relatedWorks": [],
    "relatedPersons": []
  },
  {
    "id": "scraped_201",
    "name": "王尽美故居",
    "type": "民居",
    "dynasty": "清",
    "period": "明清",
    "province": "山东",
    "city": "潍坊市",
    "lat": 35.980278,
    "lng": 119.411944,
    "batch": "第六批",
    "isFeatured": false,
    "description": "建造年代：为清代民居。；所在地区：位于山东省潍坊市诸城市。；建筑特点：故居为鲁中地区传统院落住宅，结构质朴，院落功能分明，体现北方乡村民居的一般特征。；历史文化价值：故居与早期革命活动家王尽美成长经历相关，对研究中国革命史和地方居住文化具有意义。",
    "features": [],
    "imageUrl": "",
    "relatedWorks": [],
    "relatedPersons": []
  },
  {
    "id": "scraped_202",
    "name": "斯氏古民居建筑群",
    "type": "民居",
    "dynasty": "清",
    "period": "明清",
    "province": "浙江",
    "city": "绍兴市",
    "lat": 29.569167,
    "lng": 120.450833,
    "batch": "第五批",
    "isFeatured": false,
    "description": "建造年代：建于清代。；所在地区：位于浙江省绍兴市。；建筑特点：建筑群由多座台门式或合院式民居组成，白墙黑瓦、木构架和天井院落完整，空间组织强调宗族聚居与江南居住礼序。；历史文化价值：该建筑群是研究绍兴地区清代民居、地方家族社会和江南营造技艺的重要实例。",
    "features": [],
    "imageUrl": "",
    "relatedWorks": [],
    "relatedPersons": []
  },
  {
    "id": "scraped_203",
    "name": "八字桥",
    "type": "桥梁",
    "dynasty": "宋",
    "period": "宋辽金元",
    "province": "浙江",
    "city": "绍兴市",
    "lat": 29.9999,
    "lng": 120.5897,
    "batch": "第五批",
    "isFeatured": false,
    "description": "建造年代：建于宋代。；所在地区：位于浙江省绍兴市越城区。；建筑特点：桥梁跨越两河交汇处，以斜向布局形成“八”字形桥面交通组织，石桥与水街、水巷体系结合紧密，是水城桥梁因应复杂街河关系的巧妙设计。；历史文化价值：八字桥对研究宋代江南水城交通组织、桥梁工程和绍兴古城水系格局具有重要意义。",
    "features": [],
    "imageUrl": "",
    "relatedWorks": [],
    "relatedPersons": []
  },
  {
    "id": "scraped_204",
    "name": "吕府",
    "type": "官府",
    "dynasty": "明",
    "period": "明清",
    "province": "浙江",
    "city": "绍兴市",
    "lat": 30.007222,
    "lng": 120.574444,
    "batch": "第五批",
    "isFeatured": false,
    "description": "建造年代：建于明代。；所在地区：位于浙江省绍兴市。；建筑特点：府第布局严整，厅堂与内宅分区明确，结合江南宅第建筑特点，注重礼序与居住功能的协调。；历史文化价值：吕府是研究明代绍兴官绅宅第建筑和地方社会文化的重要实例。",
    "features": [],
    "imageUrl": "",
    "relatedWorks": [],
    "relatedPersons": []
  },